[{"phone":"13102661153","pass":"123456","address":"北京市朝阳区人民法院,1楼609室","name":"张树山","ProvinceId":"110000","CityId":"110100","DistrictsId":"110105","lng":"116.475145","lat":"39.933191","OrderDate":"2018-03-18 10:16:07","OrderStatus":4,"PayStatus":"","ShopId":"211110105003","apointStatus":"3","buyStartTime":"2018-03-31 10:00:00","buyEndTime":"2018-03-31 16:00:00","reviewInfo":"","remark":"账号还在锁定期内，暂时不能购买"},{"phone":"13153185002","pass":"123456","address":"任家庄1145号","name":"周曼亚","ProvinceId":"620000","CityId":"620100","DistrictsId":"620103","lng":"103.770701","lat":"36.083598","OrderDate":"2018-03-21 12:07:46","OrderStatus":5,"PayStatus":1,"ShopId":"211110101005","apointStatus":"6","buyStartTime":"2018-03-31 10:00:00","buyEndTime":"2018-03-31 16:00:00","reviewInfo":"","remark":"账号还在锁定期内，暂时不能购买"},{"phone":"13157440883","pass":"123456","address":"东城区,密云区新北路32号","name":"倪可","ProvinceId":"110000","CityId":"110100","DistrictsId":"110101","lng":"116.416357","lat":"39.928353","OrderDate":"","OrderStatus":"","PayStatus":"","ShopId":"","apointStatus":"3","buyStartTime":"2018-03-31 10:00:00","buyEndTime":"2018-03-31 16:00:00","reviewInfo":"","remark":""},{"phone":"13176048776","pass":"123456","address":"","name":"","ProvinceId":"","CityId":"","DistrictsId":"","lng":"","lat":"","OrderDate":"","OrderStatus":"","PayStatus":"","ShopId":"","apointStatus":"","buyStartTime":"","buyEndTime":"","reviewInfo":"","remark":"登录失败:13176048776:123456:密码错误"},{"phone":"13336323159","pass":"4063443","address":"北京市朝阳区广渠门外大街9号","name":"龙腾","ProvinceId":"110000","CityId":"110100","DistrictsId":"110101","lng":"116.463768","lat":"39.899944","OrderDate":"2018-03-30 14:52:24","OrderStatus":5,"PayStatus":1,"ShopId":"211110105016","apointStatus":"4","buyStartTime":"2018-03-31 10:00:00","buyEndTime":"2018-03-31 16:00:00","reviewInfo":"","remark":"账号还在锁定期内，暂时不能购买"},{"phone":"13343192376","pass":"123456","address":"2路;118路,烟酒专卖店","name":"公羊切","ProvinceId":"110000","CityId":"110100","DistrictsId":"620103","lng":"103.770691","lat":"36.077709","OrderDate":"2018-03-12 14:39:26","OrderStatus":5,"PayStatus":1,"ShopId":"211110101005","apointStatus":"1","buyStartTime":"2018-03-31 10:00:00","buyEndTime":"2018-03-31 16:00:00","reviewInfo":"","remark":"账号还在锁定期内，暂时不能购买"},{"phone":"13351208936","pass":"jss19860529","address":"北京市朝阳区3道街22号","name":"刘健","ProvinceId":"110000","CityId":"110100","DistrictsId":"110101","lng":"116.446824","lat":"39.911279","OrderDate":"2018-03-27 14:29:51","OrderStatus":5,"PayStatus":1,"ShopId":"211110101005","apointStatus":"6","buyStartTime":"2018-03-31 10:00:00","buyEndTime":"2018-03-31 16:00:00","reviewInfo":"预约审核收货地址高度相似异常。","remark":"账号还在锁定期内，暂时不能购买"},{"phone":"13392151517","pass":"123456","address":"源达烟酒茶行,","name":"丁伟","ProvinceId":"110000","CityId":"110100","DistrictsId":"110101","lng":"116.431254","lat":"39.895243","OrderDate":"2018-03-16 10:27:05","OrderStatus":5,"PayStatus":1,"ShopId":"211110101005","apointStatus":"3","buyStartTime":"2018-03-31 10:00:00","buyEndTime":"2018-03-31 16:00:00","reviewInfo":"","remark":"账号还在锁定期内，暂时不能购买"},{"phone":"13399381732","pass":"q123456","address":"北京市朝阳区光华路1号","name":"徐作香","ProvinceId":"110000","CityId":"110100","DistrictsId":"110101","lng":"116.462983","lat":"39.918004","OrderDate":"2018-02-23 10:27:02","OrderStatus":5,"PayStatus":1,"ShopId":"211110105004","apointStatus":"6","buyStartTime":"2018-03-31 10:00:00","buyEndTime":"2018-03-31 16:00:00","reviewInfo":"预约审核收货地址高度相似异常。","remark":"账号还在锁定期内，暂时不能购买"},{"phone":"13413723166","pass":"123456","address":"爱眼眼镜(东四店),","name":"刘丽君","ProvinceId":"110000","CityId":"110100","DistrictsId":"110101","lng":"116.417794","lat":"39.921754","OrderDate":"2018-03-18 10:13:50","OrderStatus":4,"PayStatus":"","ShopId":"211110105003","apointStatus":"3","buyStartTime":"2018-03-31 10:00:00","buyEndTime":"2018-03-31 16:00:00","reviewInfo":"","remark":"账号还在锁定期内，暂时不能购买"},{"phone":"13453301621","pass":"654321","address":"北京市东城区苏州胡同101号","name":"文波","ProvinceId":"110000","CityId":"110100","DistrictsId":"110101","lng":"116.427231","lat":"39.912182","OrderDate":"2018-02-26 15:18:13","OrderStatus":4,"PayStatus":"","ShopId":"211110105004","apointStatus":"6","buyStartTime":"2018-03-31 10:00:00","buyEndTime":"2018-03-31 16:00:00","reviewInfo":"预约审核收货地址高度相似异常。","remark":"账号还在锁定期内，暂时不能购买"},{"phone":"13485665212","pass":"123456","address":"郑家庄121号,摄影器材店","name":"印溥郁","ProvinceId":"110000","CityId":"110100","DistrictsId":"620103","lng":"103.753095","lat":"36.07734","OrderDate":"2018-03-21 13:56:35","OrderStatus":5,"PayStatus":1,"ShopId":"211110101005","apointStatus":"1","buyStartTime":"2018-03-31 10:00:00","buyEndTime":"2018-03-31 16:00:00","reviewInfo":"","remark":"账号还在锁定期内，暂时不能购买"},{"phone":"13512856201","pass":"wyp100721","address":"雍贵中心B座,8栋3201","name":"魏彤","ProvinceId":"110000","CityId":"110100","DistrictsId":"110101","lng":"116.429108","lat":"39.89409","OrderDate":"2018-03-01 12:22:23","OrderStatus":5,"PayStatus":1,"ShopId":"211110101005","apointStatus":"3","buyStartTime":"2018-03-31 10:00:00","buyEndTime":"2018-03-31 16:00:00","reviewInfo":"","remark":"账号还在锁定期内，暂时不能购买"},{"phone":"13519083633","pass":"q123456","address":"北京市东城区崇文门西大街4-1号旁门附近","name":"邬连珍","ProvinceId":"110000","CityId":"110100","DistrictsId":"110101","lng":"116.422215","lat":"39.906798","OrderDate":"2018-02-23 10:08:54","OrderStatus":5,"PayStatus":1,"ShopId":"211110105004","apointStatus":"6","buyStartTime":"2018-03-31 10:00:00","buyEndTime":"2018-03-31 16:00:00","reviewInfo":"预约审核收货地址高度相似异常。","remark":"账号还在锁定期内，暂时不能购买"},{"phone":"13521690981","pass":"123456","address":"北京市朝阳区月河胡同1号","name":"龙翔","ProvinceId":"110000","CityId":"110100","DistrictsId":"110101","lng":"116.444116","lat":"39.911593","OrderDate":"2018-03-27 14:29:59","OrderStatus":5,"PayStatus":1,"ShopId":"211110101005","apointStatus":"6","buyStartTime":"2018-03-31 10:00:00","buyEndTime":"2018-03-31 16:00:00","reviewInfo":"预约审核收货地址高度相似异常。","remark":"账号还在锁定期内，暂时不能购买"},{"phone":"13526139009","pass":"DONG490099","address":"","name":"","ProvinceId":"","CityId":"","DistrictsId":"","lng":"","lat":"","OrderDate":"","OrderStatus":"","PayStatus":"","ShopId":"","apointStatus":"","buyStartTime":"","buyEndTime":"","reviewInfo":"","remark":"登录失败:13526139009:DONG490099:密码错误"},{"phone":"13546886639","pass":"qin141208","address":"斜街甲50号","name":"刘发富","ProvinceId":"110000","CityId":"110100","DistrictsId":"110101","lng":"116.446943","lat":"39.901703","OrderDate":"2018-03-27 14:30:16","OrderStatus":5,"PayStatus":1,"ShopId":"211110101005","apointStatus":"3","buyStartTime":"2018-03-31 10:00:00","buyEndTime":"2018-03-31 16:00:00","reviewInfo":"","remark":"账号还在锁定期内，暂时不能购买"},{"phone":"13567593632","pass":"123456","address":"","name":"","ProvinceId":"","CityId":"","DistrictsId":"","lng":"","lat":"","OrderDate":"","OrderStatus":"","PayStatus":"","ShopId":"","apointStatus":"","buyStartTime":"","buyEndTime":"","reviewInfo":"","remark":"登录失败:13567593632:123456:密码错误"},{"phone":"13633696711","pass":"w070416","address":"北京市东城区天坛东门东300米法华寺路南","name":"赵利","ProvinceId":"110000","CityId":"110100","DistrictsId":"110101","lng":"116.430588","lat":"39.893425","OrderDate":"2018-03-27 14:30:36","OrderStatus":5,"PayStatus":1,"ShopId":"211110101005","apointStatus":"6","buyStartTime":"2018-03-31 10:00:00","buyEndTime":"2018-03-31 16:00:00","reviewInfo":"预约审核收货地址高度相似异常。","remark":"账号还在锁定期内，暂时不能购买"},{"phone":"13700077519","pass":"123456","address":"西站郑家庄什字西南角(兰石小学东侧),茶馆","name":"严嗣","ProvinceId":"110000","CityId":"110100","DistrictsId":"620103","lng":"103.757097","lat":"36.075809","OrderDate":"2018-03-21 13:58:30","OrderStatus":5,"PayStatus":1,"ShopId":"211110101005","apointStatus":"1","buyStartTime":"2018-03-31 10:00:00","buyEndTime":"2018-03-31 16:00:00","reviewInfo":"","remark":"账号还在锁定期内，暂时不能购买"},{"phone":"13764763451","pass":"123456","address":"新景家园13号楼,1单元302室","name":"黄庆","ProvinceId":"110000","CityId":"110100","DistrictsId":"110101","lng":"116.42672","lat":"39.894711","OrderDate":"2018-03-12 10:17:28","OrderStatus":2005,"PayStatus":1,"ShopId":"111110101003","apointStatus":"6","buyStartTime":"2018-03-31 10:00:00","buyEndTime":"2018-03-31 16:00:00","reviewInfo":"","remark":"账号还在锁定期内，暂时不能购买"},{"phone":"13905853361","pass":"123456","address":"","name":"","ProvinceId":"","CityId":"","DistrictsId":"","lng":"","lat":"","OrderDate":"","OrderStatus":"","PayStatus":"","ShopId":"","apointStatus":"","buyStartTime":"","buyEndTime":"","reviewInfo":"","remark":"登录失败:13905853361:123456:密码错误"},{"phone":"13938038163","pass":"123456","address":"北京市东城区东花市北里中区(东花市大街北侧)","name":"刘发壮","ProvinceId":"110000","CityId":"110100","DistrictsId":"110101","lng":"116.443229","lat":"39.905787","OrderDate":"2018-03-30 14:53:34","OrderStatus":5,"PayStatus":1,"ShopId":"211110105016","apointStatus":"4","buyStartTime":"2018-03-31 10:00:00","buyEndTime":"2018-03-31 16:00:00","reviewInfo":"","remark":"账号还在锁定期内，暂时不能购买"},{"phone":"13993852417","pass":"q123456","address":"崇文门瓷器口车站旁100米","name":"刘发举","ProvinceId":"110000","CityId":"110100","DistrictsId":"110101","lng":"116.426443","lat":"39.89692","OrderDate":"2018-03-27 14:31:05","OrderStatus":3,"PayStatus":1,"ShopId":"211110101005","apointStatus":"6","buyStartTime":"2018-03-31 10:00:00","buyEndTime":"2018-03-31 16:00:00","reviewInfo":"预约审核收货地址高度相似异常。","remark":"账号还在锁定期内，暂时不能购买"},{"phone":"15022156584","pass":"123456","address":"","name":"","ProvinceId":"","CityId":"","DistrictsId":"","lng":"","lat":"","OrderDate":"","OrderStatus":"","PayStatus":"","ShopId":"","apointStatus":"","buyStartTime":"","buyEndTime":"","reviewInfo":"","remark":"登录失败:15022156584:123456:密码错误"},{"phone":"15039586436","pass":"123456","address":"北京市东城区幸福大街西侧南岗子街","name":"徐作林","ProvinceId":"110000","CityId":"110100","DistrictsId":"110101","lng":"116.434191","lat":"39.89371","OrderDate":"2018-03-30 14:55:12","OrderStatus":5,"PayStatus":1,"ShopId":"211110105016","apointStatus":"4","buyStartTime":"2018-03-31 10:00:00","buyEndTime":"2018-03-31 16:00:00","reviewInfo":"","remark":"账号还在锁定期内，暂时不能购买"},{"phone":"15063527328","pass":"123456","address":"火星街228-468号,土特产专卖店","name":"伍编等","ProvinceId":"110000","CityId":"110100","DistrictsId":"620103","lng":"103.761902","lat":"36.077349","OrderDate":"2018-03-21 14:00:45","OrderStatus":5,"PayStatus":1,"ShopId":"211110101005","apointStatus":"1","buyStartTime":"2018-03-31 10:00:00","buyEndTime":"2018-03-31 16:00:00","reviewInfo":"","remark":"账号还在锁定期内，暂时不能购买"},{"phone":"15075870950","pass":"123456","address":"郑家庄56-58号,摄影器材店","name":"孟依投","ProvinceId":"110000","CityId":"110100","DistrictsId":"620103","lng":"103.752239","lat":"36.078736","OrderDate":"2018-03-21 14:01:55","OrderStatus":5,"PayStatus":1,"ShopId":"211110101005","apointStatus":"1","buyStartTime":"2018-03-31 10:00:00","buyEndTime":"2018-03-31 16:00:00","reviewInfo":"","remark":"账号还在锁定期内，暂时不能购买"},{"phone":"15102549597","pass":"ml080727","address":"北京市东城区东花市南里东区7号楼","name":"钟祥英","ProvinceId":"110000","CityId":"110100","DistrictsId":"110101","lng":"116.443804","lat":"39.902097","OrderDate":"2018-03-30 14:54:24","OrderStatus":5,"PayStatus":1,"ShopId":"211110105016","apointStatus":"4","buyStartTime":"2018-03-31 10:00:00","buyEndTime":"2018-03-31 16:00:00","reviewInfo":"","remark":"账号还在锁定期内，暂时不能购买"},{"phone":"15131828567","pass":"123456","address":"白桥大街18号附近","name":"范娟","ProvinceId":"110000","CityId":"110100","DistrictsId":"110101","lng":"116.44612","lat":"39.903099","OrderDate":"2018-02-23 11:24:16","OrderStatus":5,"PayStatus":1,"ShopId":"211110105004","apointStatus":"6","buyStartTime":"2018-03-31 10:00:00","buyEndTime":"2018-03-31 16:00:00","reviewInfo":"预约审核收货地址高度相似异常。","remark":"账号还在锁定期内，暂时不能购买"},{"phone":"15203534014","pass":"654321","address":"","name":"","ProvinceId":"","CityId":"","DistrictsId":"","lng":"","lat":"","OrderDate":"","OrderStatus":"","PayStatus":"","ShopId":"","apointStatus":"","buyStartTime":"","buyEndTime":"","reviewInfo":"","remark":"登录失败:15203534014:654321:密码错误"},{"phone":"15206334886","pass":"123456","address":"火星街郑家庄17号,健身中心","name":"钭巷沚","ProvinceId":"110000","CityId":"110100","DistrictsId":"620103","lng":"103.758872","lat":"36.077387","OrderDate":"2018-03-21 12:11:09","OrderStatus":5,"PayStatus":1,"ShopId":"211110101005","apointStatus":"1","buyStartTime":"2018-03-31 10:00:00","buyEndTime":"2018-03-31 16:00:00","reviewInfo":"","remark":"账号还在锁定期内，暂时不能购买"},{"phone":"15264711001","pass":"123456","address":"劲松立交桥东北角","name":"刘毅","ProvinceId":"110000","CityId":"110100","DistrictsId":"110101","lng":"116.457351","lat":"39.888496","OrderDate":"2018-03-27 14:31:35","OrderStatus":3,"PayStatus":1,"ShopId":"211110101005","apointStatus":"3","buyStartTime":"2018-03-31 10:00:00","buyEndTime":"2018-03-31 16:00:00","reviewInfo":"","remark":"账号还在锁定期内，暂时不能购买"},{"phone":"15264711296","pass":"123456","address":"垂杨柳中街23号附近","name":"黄丹","ProvinceId":"110000","CityId":"110100","DistrictsId":"110101","lng":"116.466366","lat":"39.895206","OrderDate":"2018-03-27 14:31:46","OrderStatus":3,"PayStatus":1,"ShopId":"211110101005","apointStatus":"6","buyStartTime":"2018-03-31 10:00:00","buyEndTime":"2018-03-31 16:00:00","reviewInfo":"预约审核收货地址高度相似异常。","remark":"账号还在锁定期内，暂时不能购买"},{"phone":"15303199414","pass":"123456","address":"建兰路火星街45-97号,KTV","name":"仇由","ProvinceId":"110000","CityId":"110100","DistrictsId":"620103","lng":"103.768942","lat":"36.07686","OrderDate":"2018-03-12 14:41:11","OrderStatus":5,"PayStatus":1,"ShopId":"211110101005","apointStatus":"1","buyStartTime":"2018-03-31 10:00:00","buyEndTime":"2018-03-31 16:00:00","reviewInfo":"","remark":"账号还在锁定期内，暂时不能购买"},{"phone":"15354193781","pass":"123456","address":"2路;118路,茶馆","name":"季渊颔","ProvinceId":"110000","CityId":"110100","DistrictsId":"620103","lng":"103.770691","lat":"36.077709","OrderDate":"2018-03-12 12:14:58","OrderStatus":5,"PayStatus":1,"ShopId":"211110105004","apointStatus":"1","buyStartTime":"2018-03-31 10:00:00","buyEndTime":"2018-03-31 16:00:00","reviewInfo":"","remark":"账号还在锁定期内，暂时不能购买"},{"phone":"15373204143","pass":"123456","address":"郑家庄121号,中国联通营业厅","name":"刁韵","ProvinceId":"110000","CityId":"110100","DistrictsId":"620103","lng":"103.753095","lat":"36.07734","OrderDate":"2018-03-12 10:12:15","OrderStatus":2005,"PayStatus":1,"ShopId":"111110101003","apointStatus":"1","buyStartTime":"2018-03-31 10:00:00","buyEndTime":"2018-03-31 16:00:00","reviewInfo":"","remark":"账号还在锁定期内，暂时不能购买"},{"phone":"15393630594","pass":"123456","address":"北京市朝阳区劲松桥西北角,劲松一区","name":"葛康宁","ProvinceId":"110000","CityId":"110100","DistrictsId":"110101","lng":"116.466188","lat":"39.891109","OrderDate":"2018-03-27 14:31:54","OrderStatus":3,"PayStatus":1,"ShopId":"211110101005","apointStatus":"3","buyStartTime":"2018-03-31 10:00:00","buyEndTime":"2018-03-31 16:00:00","reviewInfo":"","remark":"账号还在锁定期内，暂时不能购买"},{"phone":"15399130078","pass":"125018adg","address":"西站郑家庄什字西南角(兰石小学东侧),土特产专卖店","name":"钟遇筹","ProvinceId":"110000","CityId":"110100","DistrictsId":"620103","lng":"103.757097","lat":"36.075809","OrderDate":"2018-02-05 10:42:33","OrderStatus":5,"PayStatus":1,"ShopId":"211110101005","apointStatus":"1","buyStartTime":"2018-03-31 10:00:00","buyEndTime":"2018-03-31 16:00:00","reviewInfo":"","remark":"账号还在锁定期内，暂时不能购买"},{"phone":"15515970953","pass":"123456","address":"火星街228-468号,电影院","name":"阙豌蠡","ProvinceId":"110000","CityId":"110100","DistrictsId":"620103","lng":"103.761902","lat":"36.077349","OrderDate":"2018-03-21 14:07:26","OrderStatus":5,"PayStatus":1,"ShopId":"211110101005","apointStatus":"1","buyStartTime":"2018-03-31 10:00:00","buyEndTime":"2018-03-31 16:00:00","reviewInfo":"","remark":"账号还在锁定期内，暂时不能购买"},{"phone":"15518849009","pass":"DONG490099","address":"","name":"","ProvinceId":"","CityId":"","DistrictsId":"","lng":"","lat":"","OrderDate":"","OrderStatus":"","PayStatus":"","ShopId":"","apointStatus":"","buyStartTime":"","buyEndTime":"","reviewInfo":"","remark":"登录失败:15518849009:DONG490099:密码错误"},{"phone":"15549208672","pass":"123456","address":"长城中环墅300号,孙农路和孙建路交叉口西北150米附近","name":"王瑜","ProvinceId":"310000","CityId":"310100","DistrictsId":"310115","lng":"121.625025","lat":"31.181672","OrderDate":"2018-03-07 10:17:57","OrderStatus":5,"PayStatus":1,"ShopId":"211110101005","apointStatus":"6","buyStartTime":"2018-03-31 10:00:00","buyEndTime":"2018-03-31 16:00:00","reviewInfo":"预约审核收货地址高度相似异常。","remark":"账号还在锁定期内，暂时不能购买"},{"phone":"15627944858","pass":"123456","address":"光华街136-226号","name":"刘发富","ProvinceId":"620000","CityId":"620100","DistrictsId":"620103","lng":"103.765535","lat":"36.08628","OrderDate":"2018-03-16 10:25:26","OrderStatus":5,"PayStatus":1,"ShopId":"211110101005","apointStatus":"6","buyStartTime":"2018-03-31 10:00:00","buyEndTime":"2018-03-31 16:00:00","reviewInfo":"","remark":"账号还在锁定期内，暂时不能购买"},{"phone":"15633523066","pass":"abc123","address":"北京市东城区培新街汇文中学旁","name":"李兴艳","ProvinceId":"110000","CityId":"110100","DistrictsId":"110101","lng":"116.442586","lat":"39.896724","OrderDate":"2018-03-27 14:32:17","OrderStatus":3,"PayStatus":1,"ShopId":"211110101005","apointStatus":"3","buyStartTime":"2018-03-31 10:00:00","buyEndTime":"2018-03-31 16:00:00","reviewInfo":"","remark":"账号还在锁定期内，暂时不能购买"},{"phone":"15645919316","pass":"123456","address":"百果园(东花市南路店),1层114号","name":"张芳","ProvinceId":"110000","CityId":"110100","DistrictsId":"110101","lng":"116.431435","lat":"39.895391","OrderDate":"2018-03-07 10:12:39","OrderStatus":5,"PayStatus":1,"ShopId":"211110101005","apointStatus":"3","buyStartTime":"2018-03-31 10:00:00","buyEndTime":"2018-03-31 16:00:00","reviewInfo":"","remark":"账号还在锁定期内，暂时不能购买"},{"phone":"15697680921","pass":"123456","address":"天空摄影(时尚婚纱摄影店),","name":"姚锦豪","ProvinceId":"110000","CityId":"110100","DistrictsId":"110101","lng":"116.426629","lat":"39.893822","OrderDate":"2018-03-16 10:26:19","OrderStatus":5,"PayStatus":1,"ShopId":"211110101005","apointStatus":"3","buyStartTime":"2018-03-31 10:00:00","buyEndTime":"2018-03-31 16:00:00","reviewInfo":"","remark":"账号还在锁定期内，暂时不能购买"},{"phone":"15698229041","pass":"123456","address":"幸福家园3区6号楼,","name":"王悦","ProvinceId":"110000","CityId":"110100","DistrictsId":"110101","lng":"116.430444","lat":"39.89326","OrderDate":"2018-03-15 10:14:57","OrderStatus":5,"PayStatus":1,"ShopId":"211110101005","apointStatus":"3","buyStartTime":"2018-03-31 10:00:00","buyEndTime":"2018-03-31 16:00:00","reviewInfo":"","remark":"账号还在锁定期内，暂时不能购买"},{"phone":"15699770933","pass":"123456","address":"北京市东城区花市枣苑11号楼花市枣苑-11号楼","name":"葛康宁","ProvinceId":"110000","CityId":"110100","DistrictsId":"110101","lng":"116.436912","lat":"39.901264","OrderDate":"2018-03-27 14:32:25","OrderStatus":5,"PayStatus":1,"ShopId":"211110101005","apointStatus":"4","buyStartTime":"2018-03-31 10:00:00","buyEndTime":"2018-03-31 16:00:00","reviewInfo":"","remark":"账号还在锁定期内，暂时不能购买"},{"phone":"15777186432","pass":"15177909309","address":"爱立诚大厦(金湘路),231号2单元113室","name":"李继龙","ProvinceId":"310000","CityId":"310100","DistrictsId":"310115","lng":"121.610473","lat":"31.254359","OrderDate":"2018-02-22 13:12:54","OrderStatus":5,"PayStatus":1,"ShopId":"211110105004","apointStatus":"4","buyStartTime":"2018-03-31 10:00:00","buyEndTime":"2018-03-31 16:00:00","reviewInfo":"","remark":"账号还在锁定期内，暂时不能购买"},{"phone":"15937230461","pass":"123456","address":"火星街100号附近,网吧","name":"丁墀","ProvinceId":"110000","CityId":"110100","DistrictsId":"620103","lng":"103.76866","lat":"36.078772","OrderDate":"2018-03-02 10:19:01","OrderStatus":4,"PayStatus":"","ShopId":"211110105004","apointStatus":"1","buyStartTime":"2018-03-31 10:00:00","buyEndTime":"2018-03-31 16:00:00","reviewInfo":"","remark":"账号还在锁定期内，暂时不能购买"},{"phone":"15949806339","pass":"lhj0325","address":"北京市东城区西花市南里东区12号西花市南里东区12号楼","name":"李兴艳","ProvinceId":"110000","CityId":"110100","DistrictsId":"110101","lng":"116.433804","lat":"39.901026","OrderDate":"2018-02-23 10:56:06","OrderStatus":5,"PayStatus":1,"ShopId":"211110105004","apointStatus":"3","buyStartTime":"2018-03-31 10:00:00","buyEndTime":"2018-03-31 16:00:00","reviewInfo":"","remark":"账号还在锁定期内，暂时不能购买"},{"phone":"15951853170","pass":"123456","address":"甘肃省兰州市七里河区一建集团2号职工公寓(明珠家园北)","name":"刘发壮","ProvinceId":"620000","CityId":"620100","DistrictsId":"620103","lng":"103.764264","lat":"36.083125","OrderDate":"2018-03-13 10:33:39","OrderStatus":5,"PayStatus":1,"ShopId":"211110101005","apointStatus":"2","buyStartTime":"2018-03-31 10:00:00","buyEndTime":"2018-03-31 16:00:00","reviewInfo":"终端设备存在安全隐患。适用于《茅台云商服务协议说明》第五条：【交易】中的若干规定，主要涉及：5.1.13利用软件、技术手段或其他方式，为套取优惠、折扣、赠品、运费或其他利益而注册一个或多个茅台云商账号、一人使用同一或多个茅台云商账号，或合意他人使用同一或多个茅台云商账号进行下单等行为；5.3.4如对订单取消、账号被冻结、封禁、不发货等情形有疑问，可与茅台云商客服进行联系。上述购物限制，除特殊说明外并非仅针对单一账号，如您在一段时间内通过多个账号下单，单笔订单数量并未超过该商品购物数量限制，但通过收件地址、下单IP地址、联系电话等判断实际购买人为一人或与您有紧密关联，且多笔订单合计购买数量超过该商品购物数量限制的，茅台云商有权取消或锁定相关订单。若遇不同ID但具备下列选项之一：批量相同（包括雷同、临近、虚构）的收货地址、联系号码、收件人（巧合同名除外）、付款信息等均视为同一客户，茅台云商有权取消或锁定相关订单。","remark":"账号还在锁定期内，暂时不能购买"},{"phone":"15981953127","pass":"123456","address":"家乐福(广渠门店),3栋309","name":"小梅","ProvinceId":"110000","CityId":"110100","DistrictsId":"110101","lng":"116.433215","lat":"39.894134","OrderDate":"2018-02-28 13:15:10","OrderStatus":5,"PayStatus":1,"ShopId":"211110101005","apointStatus":"3","buyStartTime":"2018-03-31 10:00:00","buyEndTime":"2018-03-31 16:00:00","reviewInfo":"","remark":"账号还在锁定期内，暂时不能购买"},{"phone":"17097224268","pass":"123456","address":"融合汇通典当行,","name":"李文博","ProvinceId":"110000","CityId":"110100","DistrictsId":"110101","lng":"116.426477","lat":"39.893837","OrderDate":"2018-03-18 10:13:24","OrderStatus":4,"PayStatus":"","ShopId":"211110105003","apointStatus":"3","buyStartTime":"2018-03-31 10:00:00","buyEndTime":"2018-03-31 16:00:00","reviewInfo":"","remark":"账号还在锁定期内，暂时不能购买"},{"phone":"17335351190","pass":"123456","address":"","name":"","ProvinceId":"","CityId":"","DistrictsId":"","lng":"","lat":"","OrderDate":"","OrderStatus":"","PayStatus":"","ShopId":"","apointStatus":"","buyStartTime":"","buyEndTime":"","reviewInfo":"","remark":"tunneling socket could not be established, cause=socket hang up"},{"phone":"17379324087","pass":"123456","address":"火星街郑家庄17号,专营店","name":"闻人欧","ProvinceId":"110000","CityId":"110100","DistrictsId":"620103","lng":"103.758872","lat":"36.077387","OrderDate":"2018-03-19 10:44:34","OrderStatus":5,"PayStatus":1,"ShopId":"211110101005","apointStatus":"1","buyStartTime":"2018-03-31 10:00:00","buyEndTime":"2018-03-31 16:00:00","reviewInfo":"","remark":"账号还在锁定期内，暂时不能购买"},{"phone":"17505106529","pass":"132623","address":"北京市东城区西花市南里东区16号楼西花市南里东区16号楼-六单元","name":"龙小五","ProvinceId":"110000","CityId":"110100","DistrictsId":"110101","lng":"116.433723","lat":"39.900285","OrderDate":"2018-02-28 10:06:03","OrderStatus":5,"PayStatus":1,"ShopId":"211110105004","apointStatus":"3","buyStartTime":"2018-03-31 10:00:00","buyEndTime":"2018-03-31 16:00:00","reviewInfo":"","remark":"账号还在锁定期内，暂时不能购买"},{"phone":"17535275750","pass":"123456","address":"北京汽车大厦,25号","name":"凌浩天","ProvinceId":"110000","CityId":"110100","DistrictsId":"110105","lng":"116.460289","lat":"39.871017","OrderDate":"2018-03-14 21:07:05","OrderStatus":4,"PayStatus":"","ShopId":"211110105003","apointStatus":"6","buyStartTime":"2018-03-31 10:00:00","buyEndTime":"2018-03-31 16:00:00","reviewInfo":"","remark":"账号还在锁定期内，暂时不能购买"},{"phone":"17612746321","pass":"123456321654","address":"北京市东城区新景家园东区13号楼新景家园东区-13号楼","name":"王欢","ProvinceId":"110000","CityId":"110100","DistrictsId":"110101","lng":"116.433662","lat":"39.9007","OrderDate":"2018-02-28 10:20:26","OrderStatus":5,"PayStatus":1,"ShopId":"211110105004","apointStatus":"3","buyStartTime":"2018-03-31 10:00:00","buyEndTime":"2018-03-31 16:00:00","reviewInfo":"","remark":"账号还在锁定期内，暂时不能购买"},{"phone":"17753747930","pass":"8642569","address":"北京市东城区东花市大街新景家园-东区","name":"乔兴旺","ProvinceId":"110000","CityId":"110100","DistrictsId":"110101","lng":"116.432085","lat":"39.9015","OrderDate":"2018-02-24 10:02:51","OrderStatus":5,"PayStatus":1,"ShopId":"211110105004","apointStatus":"3","buyStartTime":"2018-03-31 10:00:00","buyEndTime":"2018-03-31 16:00:00","reviewInfo":"","remark":"账号还在锁定期内，暂时不能购买"},{"phone":"17757449525","pass":"123456","address":"东城区,金宝街1号","name":"乐佳欣","ProvinceId":"110000","CityId":"110100","DistrictsId":"110101","lng":"116.416357","lat":"39.928353","OrderDate":"","OrderStatus":"","PayStatus":"","ShopId":"","apointStatus":"6","buyStartTime":"2018-03-31 10:00:00","buyEndTime":"2018-03-31 16:00:00","reviewInfo":"终端设备存在安全隐患。","remark":""},{"phone":"18032952504","pass":"123456","address":"富贵园,三区b206","name":"毛进苏","ProvinceId":"110000","CityId":"110100","DistrictsId":"110101","lng":"116.433508","lat":"39.897365","OrderDate":"2018-03-12 12:16:13","OrderStatus":5,"PayStatus":1,"ShopId":"211110105004","apointStatus":"6","buyStartTime":"2018-03-31 10:00:00","buyEndTime":"2018-03-31 16:00:00","reviewInfo":"","remark":"账号还在锁定期内，暂时不能购买"},{"phone":"18131970041","pass":"123456","address":"伯鑫宾馆(西花市店),7楼705","name":"曲超斌","ProvinceId":"110000","CityId":"110100","DistrictsId":"110101","lng":"116.423931","lat":"39.897438","OrderDate":"2018-03-08 10:16:32","OrderStatus":5,"PayStatus":1,"ShopId":"211110101005","apointStatus":"6","buyStartTime":"2018-03-31 10:00:00","buyEndTime":"2018-03-31 16:00:00","reviewInfo":"","remark":"账号还在锁定期内，暂时不能购买"},{"phone":"18201603185","pass":"123456","address":"雍贵中心,","name":"李斌","ProvinceId":"110000","CityId":"110100","DistrictsId":"110101","lng":"116.428696","lat":"39.894322","OrderDate":"2018-03-12 12:17:55","OrderStatus":5,"PayStatus":1,"ShopId":"211110105004","apointStatus":"6","buyStartTime":"2018-03-31 10:00:00","buyEndTime":"2018-03-31 16:00:00","reviewInfo":"","remark":"账号还在锁定期内，暂时不能购买"},{"phone":"18207517996","pass":"123456","address":"雍贵中心B座,北京东城区广渠门内大街43号","name":"乱七八糟","ProvinceId":"110000","CityId":"110100","DistrictsId":"110101","lng":"116.429108","lat":"39.89409","OrderDate":"2018-03-21 12:02:33","OrderStatus":5,"PayStatus":1,"ShopId":"211110101005","apointStatus":"6","buyStartTime":"2018-03-31 10:00:00","buyEndTime":"2018-03-31 16:00:00","reviewInfo":"","remark":"账号还在锁定期内，暂时不能购买"},{"phone":"18232902912","pass":"108108li","address":"广渠门内大街,通用小区二单元二号楼208室","name":"李永立","ProvinceId":"110000","CityId":"110100","DistrictsId":"110101","lng":"116.431342","lat":"39.893479","OrderDate":"2018-02-05 10:21:28","OrderStatus":5,"PayStatus":1,"ShopId":"211110101005","apointStatus":"6","buyStartTime":"2018-03-31 10:00:00","buyEndTime":"2018-03-31 16:00:00","reviewInfo":"","remark":"账号还在锁定期内，暂时不能购买"},{"phone":"18246626742","pass":"jss19860529","address":"北京市东城区安化北里18号北京上舍园","name":"覃芳","ProvinceId":"110000","CityId":"110100","DistrictsId":"110101","lng":"116.442721","lat":"39.897544","OrderDate":"2018-02-23 10:47:19","OrderStatus":5,"PayStatus":1,"ShopId":"211110105004","apointStatus":"3","buyStartTime":"2018-03-31 10:00:00","buyEndTime":"2018-03-31 16:00:00","reviewInfo":"","remark":"账号还在锁定期内，暂时不能购买"},{"phone":"18253251389","pass":"123456","address":"富贵园,29号楼902","name":"耿雅楠","ProvinceId":"110000","CityId":"110100","DistrictsId":"110101","lng":"116.433508","lat":"39.897365","OrderDate":"2018-03-07 10:10:15","OrderStatus":5,"PayStatus":1,"ShopId":"211110101005","apointStatus":"6","buyStartTime":"2018-03-31 10:00:00","buyEndTime":"2018-03-31 16:00:00","reviewInfo":"","remark":"账号还在锁定期内，暂时不能购买"},{"phone":"18333966217","pass":"123456","address":"人民法院新闻传媒总社,3楼315主任室","name":"唐锁营","ProvinceId":"110000","CityId":"110100","DistrictsId":"110101","lng":"116.429521","lat":"39.897621","OrderDate":"2018-03-12 10:18:52","OrderStatus":2005,"PayStatus":1,"ShopId":"111110101003","apointStatus":"6","buyStartTime":"2018-03-31 10:00:00","buyEndTime":"2018-03-31 16:00:00","reviewInfo":"","remark":"账号还在锁定期内，暂时不能购买"},{"phone":"18353874500","pass":"anjiaqi112828","address":"贵州省贵阳市云岩区北京路27","name":"刘丽","ProvinceId":"550000","CityId":"550100","DistrictsId":"550101","lng":"106.718452","lat":"26.601522","OrderDate":"2018-02-23 10:48:54","OrderStatus":5,"PayStatus":1,"ShopId":"211110105004","apointStatus":"6","buyStartTime":"2018-03-31 10:00:00","buyEndTime":"2018-03-31 16:00:00","reviewInfo":"预约审核收货地址高度相似异常。适用于《茅台云商服务协议说明》第五条：【交易】中的若干规定，主要涉及：5.1.13利用软件、技术手段或其他方式，为套取优惠、折扣、赠品、运费或其他利益而注册一个或多个茅台云商账号、一人使用同一或多个茅台云商账号，或合意他人使用同一或多个茅台云商账号进行下单等行为；5.3.4如对订单取消、账号被冻结、封禁、不发货等情形有疑问，可与茅台云商客服进行联系。上述购物限制，除特殊说明外并非仅针对单一账号，如您在一段时间内通过多个账号下单，单笔订单数量并未超过该商品购物数量限制，但通过收件地址、下单IP地址、联系电话等判断实际购买人为一人或与您有紧密关联，且多笔订单合计购买数量超过该商品购物数量限制的，茅台云商有权取消或锁定相关订单。若遇不同ID但具备下列选项之一：批量相同（包括雷同、临近、虚构）的收货地址、联系号码、收件人（巧合同名除外）、付款信息等均视为同一客户，茅台云商有权取消或锁定相关订单。","remark":"账号还在锁定期内，暂时不能购买"},{"phone":"18382394514","pass":"123456","address":"富贵园,","name":"刘伟","ProvinceId":"110000","CityId":"110100","DistrictsId":"110101","lng":"116.433508","lat":"39.897365","OrderDate":"2018-03-07 10:09:55","OrderStatus":5,"PayStatus":1,"ShopId":"211110101005","apointStatus":"6","buyStartTime":"2018-03-31 10:00:00","buyEndTime":"2018-03-31 16:00:00","reviewInfo":"","remark":"账号还在锁定期内，暂时不能购买"},{"phone":"18537303412","pass":"z410781","address":"贵阳市盐务街9号银寨总店经营民族手工银饰","name":"张红","ProvinceId":"550000","CityId":"550100","DistrictsId":"550101","lng":"106.718575","lat":"26.602299","OrderDate":"2018-02-22 11:40:44","OrderStatus":5,"PayStatus":1,"ShopId":"211110105004","apointStatus":"6","buyStartTime":"2018-03-31 10:00:00","buyEndTime":"2018-03-31 16:00:00","reviewInfo":"","remark":"账号还在锁定期内，暂时不能购买"},{"phone":"18629896680","pass":"123456","address":"雍贵中心C座,北京市东城区雍贵中心c1","name":"李永东","ProvinceId":"110000","CityId":"110100","DistrictsId":"110101","lng":"116.428922","lat":"39.894617","OrderDate":"2018-03-12 10:14:44","OrderStatus":2005,"PayStatus":1,"ShopId":"111110101003","apointStatus":"6","buyStartTime":"2018-03-31 10:00:00","buyEndTime":"2018-03-31 16:00:00","reviewInfo":"","remark":"账号还在锁定期内，暂时不能购买"},{"phone":"18709222182","pass":"123456","address":"东三环中路,九龙花园5号楼5单元1002室","name":"王司仪","ProvinceId":"110000","CityId":"110100","DistrictsId":"110105","lng":"116.461676","lat":"39.908268","OrderDate":"2018-03-07 10:03:12","OrderStatus":5,"PayStatus":1,"ShopId":"211110101005","apointStatus":"6","buyStartTime":"2018-03-31 10:00:00","buyEndTime":"2018-03-31 16:00:00","reviewInfo":"","remark":"账号还在锁定期内，暂时不能购买"},{"phone":"18810320392","pass":"12345678","address":"北京工商联大厦,2509","name":"王金璐","ProvinceId":"110000","CityId":"110100","DistrictsId":"110101","lng":"116.439648","lat":"39.896489","OrderDate":"2018-03-18 10:16:56","OrderStatus":4,"PayStatus":"","ShopId":"211110105003","apointStatus":"6","buyStartTime":"2018-03-31 10:00:00","buyEndTime":"2018-03-31 16:00:00","reviewInfo":"","remark":"账号还在锁定期内，暂时不能购买"},{"phone":"18834168128","pass":"A3396815","address":"贵医街28号","name":"刘义红","ProvinceId":"550000","CityId":"550100","DistrictsId":"550101","lng":"106.718979","lat":"26.600958","OrderDate":"2018-02-22 10:10:14","OrderStatus":5,"PayStatus":1,"ShopId":"211110105004","apointStatus":"6","buyStartTime":"2018-03-31 10:00:00","buyEndTime":"2018-03-31 16:00:00","reviewInfo":"","remark":"账号还在锁定期内，暂时不能购买"},{"phone":"18863572962","pass":"123456","address":"幸福家园7号楼,2栋1单元","name":"陈溪","ProvinceId":"110000","CityId":"110100","DistrictsId":"110101","lng":"116.428971","lat":"39.892361","OrderDate":"2018-03-15 10:14:00","OrderStatus":5,"PayStatus":1,"ShopId":"211110101005","apointStatus":"6","buyStartTime":"2018-03-31 10:00:00","buyEndTime":"2018-03-31 16:00:00","reviewInfo":"","remark":"账号还在锁定期内，暂时不能购买"},{"phone":"18946959184","pass":"123456","address":"金满街财富中心,","name":"陈越","ProvinceId":"110000","CityId":"110100","DistrictsId":"110101","lng":"116.428409","lat":"39.894633","OrderDate":"2018-03-18 10:17:15","OrderStatus":4,"PayStatus":"","ShopId":"211110105003","apointStatus":"6","buyStartTime":"2018-03-31 10:00:00","buyEndTime":"2018-03-31 16:00:00","reviewInfo":"","remark":"账号还在锁定期内，暂时不能购买"},{"phone":"18967839427","pass":"123456","address":"东城区,海关大街南一巷13号","name":"鲁元","ProvinceId":"110000","CityId":"110100","DistrictsId":"110101","lng":"116.416357","lat":"39.928353","OrderDate":"","OrderStatus":"","PayStatus":"","ShopId":"","apointStatus":"6","buyStartTime":"2018-03-31 10:00:00","buyEndTime":"2018-03-31 16:00:00","reviewInfo":"终端设备存在安全隐患。适用于《茅台云商服务协议说明》第五条：【交易】中的若干规定，主要涉及：5.1.13利用软件、技术手段或其他方式，为套取优惠、折扣、赠品、运费或其他利益而注册一个或多个茅台云商账号、一人使用同一或多个茅台云商账号，或合意他人使用同一或多个茅台云商账号进行下单等行为；5.3.4如对订单取消、账号被冻结、封禁、不发货等情形有疑问，可与茅台云商客服进行联系。上述购物限制，除特殊说明外并非仅针对单一账号，如您在一段时间内通过多个账号下单，单笔订单数量并未超过该商品购物数量限制，但通过收件地址、下单IP地址、联系电话等判断实际购买人为一人或与您有紧密关联，且多笔订单合计购买数量超过该商品购物数量限制的，茅台云商有权取消或锁定相关订单。若遇不同ID但具备下列选项之一：批量相同（包括雷同、临近、虚构）的收货地址、联系号码、收件人（巧合同名除外）、付款信息等均视为同一客户，茅台云商有权取消或锁定相关订单。","remark":""},{"phone":"18982761259","pass":"721025","address":"北京路19号新华苑A座1楼","name":"姚小虎","ProvinceId":"550000","CityId":"550100","DistrictsId":"550101","lng":"106.719856","lat":"26.601967","OrderDate":"2018-02-23 11:23:33","OrderStatus":4,"PayStatus":"","ShopId":"211110105005","apointStatus":"6","buyStartTime":"2018-03-31 10:00:00","buyEndTime":"2018-03-31 16:00:00","reviewInfo":"预约审核收货地址高度相似异常。适用于《茅台云商服务协议说明》第五条：【交易】中的若干规定，主要涉及：5.1.13利用软件、技术手段或其他方式，为套取优惠、折扣、赠品、运费或其他利益而注册一个或多个茅台云商账号、一人使用同一或多个茅台云商账号，或合意他人使用同一或多个茅台云商账号进行下单等行为；5.3.4如对订单取消、账号被冻结、封禁、不发货等情形有疑问，可与茅台云商客服进行联系。上述购物限制，除特殊说明外并非仅针对单一账号，如您在一段时间内通过多个账号下单，单笔订单数量并未超过该商品购物数量限制，但通过收件地址、下单IP地址、联系电话等判断实际购买人为一人或与您有紧密关联，且多笔订单合计购买数量超过该商品购物数量限制的，茅台云商有权取消或锁定相关订单。若遇不同ID但具备下列选项之一：批量相同（包括雷同、临近、虚构）的收货地址、联系号码、收件人（巧合同名除外）、付款信息等均视为同一客户，茅台云商有权取消或锁定相关订单。","remark":"账号还在锁定期内，暂时不能购买"},{"phone":"15249625137","pass":"a123456","address":"北京市丰台区马家堡西里40号马家堡小区","name":"葛徳智","ProvinceId":"110000","CityId":"110100","DistrictsId":"110106","lng":"116.380946","lat":"39.859653","OrderDate":"2018-03-23 10:14:38","OrderStatus":4,"PayStatus":"","ShopId":"211110106001","apointStatus":"6","buyStartTime":"2018-03-31 10:00:00","buyEndTime":"2018-03-31 16:00:00","reviewInfo":"","remark":"账号还在锁定期内，暂时不能购买"},{"phone":"15046846298","pass":"a123456","address":"北京市丰台区北甲地路9号院玉安园小区","name":"刘发富","ProvinceId":"110000","CityId":"110100","DistrictsId":"110106","lng":"116.368126","lat":"39.854767","OrderDate":"2018-03-23 10:30:46","OrderStatus":4,"PayStatus":"","ShopId":"211110106001","apointStatus":"6","buyStartTime":"2018-03-31 10:00:00","buyEndTime":"2018-03-31 16:00:00","reviewInfo":"","remark":"账号还在锁定期内，暂时不能购买"},{"phone":"18903188059","pass":"a123456","address":"北京市丰台区右安门外大街205号家和园小区","name":"赵利","ProvinceId":"110000","CityId":"110100","DistrictsId":"110106","lng":"116.367431","lat":"39.866114","OrderDate":"2018-03-23 10:35:35","OrderStatus":4,"PayStatus":"","ShopId":"211110106001","apointStatus":"6","buyStartTime":"2018-03-31 10:00:00","buyEndTime":"2018-03-31 16:00:00","reviewInfo":"","remark":"账号还在锁定期内，暂时不能购买"},{"phone":"18648747250","pass":"a123456","address":"","name":"","ProvinceId":"","CityId":"","DistrictsId":"","lng":"","lat":"","OrderDate":"","OrderStatus":"","PayStatus":"","ShopId":"","apointStatus":"","buyStartTime":"","buyEndTime":"","reviewInfo":"","remark":""},{"phone":"15891780430","pass":"a123456","address":"","name":"","ProvinceId":"","CityId":"","DistrictsId":"","lng":"","lat":"","OrderDate":"","OrderStatus":"","PayStatus":"","ShopId":"","apointStatus":"","buyStartTime":"","buyEndTime":"","reviewInfo":"","remark":"登录失败:15891780430:a123456:密码错误"},{"phone":"18634641063","pass":"a123456","address":"","name":"","ProvinceId":"","CityId":"","DistrictsId":"","lng":"","lat":"","OrderDate":"","OrderStatus":"","PayStatus":"","ShopId":"","apointStatus":"","buyStartTime":"","buyEndTime":"","reviewInfo":"","remark":""},{"phone":"15192468705","pass":"a123456","address":"","name":"","ProvinceId":"","CityId":"","DistrictsId":"","lng":"","lat":"","OrderDate":"","OrderStatus":"","PayStatus":"","ShopId":"","apointStatus":"","buyStartTime":"","buyEndTime":"","reviewInfo":"","remark":""},{"phone":"13670589613","pass":"a123456","address":"北京市丰台区马家堡西路13号嘉丽园小区","name":"钟祥英","ProvinceId":"110000","CityId":"110100","DistrictsId":"110106","lng":"116.376848","lat":"39.853717","OrderDate":"2018-03-23 10:10:31","OrderStatus":4,"PayStatus":"","ShopId":"211110106001","apointStatus":"6","buyStartTime":"2018-03-31 10:00:00","buyEndTime":"2018-03-31 16:00:00","reviewInfo":"","remark":"账号还在锁定期内，暂时不能购买"},{"phone":"13792080758","pass":"a123456","address":"北京市丰台区丰开苑小区","name":"范娟","ProvinceId":"110000","CityId":"110100","DistrictsId":"110106","lng":"116.372841","lat":"39.859793","OrderDate":"2018-03-23 10:31:27","OrderStatus":4,"PayStatus":"","ShopId":"211110106001","apointStatus":"6","buyStartTime":"2018-03-31 10:00:00","buyEndTime":"2018-03-31 16:00:00","reviewInfo":"","remark":"账号还在锁定期内，暂时不能购买"},{"phone":"13313181385","pass":"a123456","address":"草桥东路6号草桥物业小区","name":"刘应阳","ProvinceId":"110000","CityId":"110100","DistrictsId":"110106","lng":"116.368006","lat":"39.855746","OrderDate":"","OrderStatus":"","PayStatus":"","ShopId":"","apointStatus":"6","buyStartTime":"2018-03-31 10:00:00","buyEndTime":"2018-03-31 16:00:00","reviewInfo":"","remark":""},{"phone":"13935327172","pass":"a123456","address":"北京市大兴区欣旺北大街宏盛园小区-16号楼","name":"龙翔","ProvinceId":"110000","CityId":"110100","DistrictsId":"110115","lng":"116.342018","lat":"39.800933","OrderDate":"","OrderStatus":"","PayStatus":"","ShopId":"","apointStatus":"6","buyStartTime":"2018-03-31 10:00:00","buyEndTime":"2018-03-31 16:00:00","reviewInfo":"预约审核收货地址高度相似异常。适用于《茅台云商服务协议说明》第五条：【交易】中的若干规定，主要涉及：5.1.13利用软件、技术手段或其他方式，为套取优惠、折扣、赠品、运费或其他利益而注册一个或多个茅台云商账号、一人使用同一或多个茅台云商账号，或合意他人使用同一或多个茅台云商账号进行下单等行为；5.3.4如对订单取消、账号被冻结、封禁、不发货等情形有疑问，可与茅台云商客服进行联系。上述购物限制，除特殊说明外并非仅针对单一账号，如您在一段时间内通过多个账号下单，单笔订单数量并未超过该商品购物数量限制，但通过收件地址、下单IP地址、联系电话等判断实际购买人为一人或与您有紧密关联，且多笔订单合计购买数量超过该商品购物数量限制的，茅台云商有权取消或锁定相关订单。若遇不同ID但具备下列选项之一：批量相同（包括雷同、临近、虚构）的收货地址、联系号码、收件人（巧合同名除外）、付款信息等均视为同一客户，茅台云商有权取消或锁定相关订单。","remark":""},{"phone":"13432527862","pass":"a123456","address":"","name":"","ProvinceId":"","CityId":"","DistrictsId":"","lng":"","lat":"","OrderDate":"","OrderStatus":"","PayStatus":"","ShopId":"","apointStatus":"","buyStartTime":"","buyEndTime":"","reviewInfo":"","remark":""},{"phone":"13333176802","pass":"a123456","address":"北京市大兴区欣旺北大街宏盛园小区-18号楼","name":"刘发富","ProvinceId":"110000","CityId":"110100","DistrictsId":"110115","lng":"116.342154","lat":"39.801572","OrderDate":"","OrderStatus":"","PayStatus":"","ShopId":"","apointStatus":"6","buyStartTime":"2018-03-31 10:00:00","buyEndTime":"2018-03-31 16:00:00","reviewInfo":"预约审核收货地址高度相似异常。适用于《茅台云商服务协议说明》第五条：【交易】中的若干规定，主要涉及：5.1.13利用软件、技术手段或其他方式，为套取优惠、折扣、赠品、运费或其他利益而注册一个或多个茅台云商账号、一人使用同一或多个茅台云商账号，或合意他人使用同一或多个茅台云商账号进行下单等行为；5.3.4如对订单取消、账号被冻结、封禁、不发货等情形有疑问，可与茅台云商客服进行联系。上述购物限制，除特殊说明外并非仅针对单一账号，如您在一段时间内通过多个账号下单，单笔订单数量并未超过该商品购物数量限制，但通过收件地址、下单IP地址、联系电话等判断实际购买人为一人或与您有紧密关联，且多笔订单合计购买数量超过该商品购物数量限制的，茅台云商有权取消或锁定相关订单。若遇不同ID但具备下列选项之一：批量相同（包括雷同、临近、虚构）的收货地址、联系号码、收件人（巧合同名除外）、付款信息等均视为同一客户，茅台云商有权取消或锁定相关订单。","remark":""},{"phone":"13624666057","pass":"a123456","address":"西红门镇宏胜家园15号楼宏盛园小区-15号楼","name":"赵利","ProvinceId":"110000","CityId":"110100","DistrictsId":"110115","lng":"116.342027","lat":"39.800593","OrderDate":"2018-03-23 10:31:38","OrderStatus":4,"PayStatus":"","ShopId":"211110224001","apointStatus":"6","buyStartTime":"2018-03-31 10:00:00","buyEndTime":"2018-03-31 16:00:00","reviewInfo":"","remark":"账号还在锁定期内，暂时不能购买"},{"phone":"15935492346","pass":"a123456","address":"北京市大兴区西红门欣旺北大街宏胜家园13号楼宏盛园小区13号楼","name":"刘发壮","ProvinceId":"110000","CityId":"110100","DistrictsId":"110115","lng":"116.342974","lat":"39.800321","OrderDate":"2018-03-23 10:31:47","OrderStatus":4,"PayStatus":"","ShopId":"211110224001","apointStatus":"6","buyStartTime":"2018-03-31 10:00:00","buyEndTime":"2018-03-31 16:00:00","reviewInfo":"","remark":"账号还在锁定期内，暂时不能购买"},{"phone":"13593493641","pass":"a123456","address":"北京市大兴区西红门北二街宏盛家园(兴都苑南50米)宏盛园小区-11号楼","name":"刘发举","ProvinceId":"110000","CityId":"110100","DistrictsId":"110115","lng":"116.343065","lat":"39.801212","OrderDate":"","OrderStatus":"","PayStatus":"","ShopId":"","apointStatus":"6","buyStartTime":"2018-03-31 10:00:00","buyEndTime":"2018-03-31 16:00:00","reviewInfo":"预约审核收货地址高度相似异常。适用于《茅台云商服务协议说明》第五条：【交易】中的若干规定，主要涉及：5.1.13利用软件、技术手段或其他方式，为套取优惠、折扣、赠品、运费或其他利益而注册一个或多个茅台云商账号、一人使用同一或多个茅台云商账号，或合意他人使用同一或多个茅台云商账号进行下单等行为；5.3.4如对订单取消、账号被冻结、封禁、不发货等情形有疑问，可与茅台云商客服进行联系。上述购物限制，除特殊说明外并非仅针对单一账号，如您在一段时间内通过多个账号下单，单笔订单数量并未超过该商品购物数量限制，但通过收件地址、下单IP地址、联系电话等判断实际购买人为一人或与您有紧密关联，且多笔订单合计购买数量超过该商品购物数量限制的，茅台云商有权取消或锁定相关订单。若遇不同ID但具备下列选项之一：批量相同（包括雷同、临近、虚构）的收货地址、联系号码、收件人（巧合同名除外）、付款信息等均视为同一客户，茅台云商有权取消或锁定相关订单。","remark":""},{"phone":"13191162477","pass":"a123456","address":"","name":"","ProvinceId":"","CityId":"","DistrictsId":"","lng":"","lat":"","OrderDate":"","OrderStatus":"","PayStatus":"","ShopId":"","apointStatus":"","buyStartTime":"","buyEndTime":"","reviewInfo":"","remark":""},{"phone":"13842111030","pass":"a123456","address":"北京市大兴区欣旺北大街宏盛园小区-14号楼","name":"钟祥英","ProvinceId":"110000","CityId":"110100","DistrictsId":"110115","lng":"116.341991","lat":"39.800284","OrderDate":"","OrderStatus":"","PayStatus":"","ShopId":"","apointStatus":"6","buyStartTime":"2018-03-31 10:00:00","buyEndTime":"2018-03-31 16:00:00","reviewInfo":"预约审核收货地址高度相似异常。适用于《茅台云商服务协议说明》第五条：【交易】中的若干规定，主要涉及：5.1.13利用软件、技术手段或其他方式，为套取优惠、折扣、赠品、运费或其他利益而注册一个或多个茅台云商账号、一人使用同一或多个茅台云商账号，或合意他人使用同一或多个茅台云商账号进行下单等行为；5.3.4如对订单取消、账号被冻结、封禁、不发货等情形有疑问，可与茅台云商客服进行联系。上述购物限制，除特殊说明外并非仅针对单一账号，如您在一段时间内通过多个账号下单，单笔订单数量并未超过该商品购物数量限制，但通过收件地址、下单IP地址、联系电话等判断实际购买人为一人或与您有紧密关联，且多笔订单合计购买数量超过该商品购物数量限制的，茅台云商有权取消或锁定相关订单。若遇不同ID但具备下列选项之一：批量相同（包括雷同、临近、虚构）的收货地址、联系号码、收件人（巧合同名除外）、付款信息等均视为同一客户，茅台云商有权取消或锁定相关订单。","remark":""},{"phone":"15613794675","pass":"a123456","address":"大兴西红门欣旺大街南口兴海家园-星苑","name":"范娟","ProvinceId":"110000","CityId":"110100","DistrictsId":"110115","lng":"116.342968","lat":"39.797247","OrderDate":"2018-03-23 10:08:51","OrderStatus":4,"PayStatus":"","ShopId":"211110224001","apointStatus":"6","buyStartTime":"2018-03-31 10:00:00","buyEndTime":"2018-03-31 16:00:00","reviewInfo":"","remark":"账号还在锁定期内，暂时不能购买"},{"phone":"18947646202","pass":"a123456","address":"","name":"","ProvinceId":"","CityId":"","DistrictsId":"","lng":"","lat":"","OrderDate":"","OrderStatus":"","PayStatus":"","ShopId":"","apointStatus":"","buyStartTime":"","buyEndTime":"","reviewInfo":"","remark":""},{"phone":"18535042686","pass":"a123456","address":"","name":"","ProvinceId":"","CityId":"","DistrictsId":"","lng":"","lat":"","OrderDate":"","OrderStatus":"","PayStatus":"","ShopId":"","apointStatus":"","buyStartTime":"","buyEndTime":"","reviewInfo":"","remark":""},{"phone":"15016558213","pass":"a123456","address":"","name":"","ProvinceId":"","CityId":"","DistrictsId":"","lng":"","lat":"","OrderDate":"","OrderStatus":"","PayStatus":"","ShopId":"","apointStatus":"","buyStartTime":"","buyEndTime":"","reviewInfo":"","remark":""},{"phone":"15852871965","pass":"a123456","address":"","name":"","ProvinceId":"","CityId":"","DistrictsId":"","lng":"","lat":"","OrderDate":"","OrderStatus":"","PayStatus":"","ShopId":"","apointStatus":"","buyStartTime":"","buyEndTime":"","reviewInfo":"","remark":""},{"phone":"13838680531","pass":"a123456","address":"","name":"","ProvinceId":"","CityId":"","DistrictsId":"","lng":"","lat":"","OrderDate":"","OrderStatus":"","PayStatus":"","ShopId":"","apointStatus":"","buyStartTime":"","buyEndTime":"","reviewInfo":"","remark":""},{"phone":"15863677659","pass":"a123456","address":"","name":"","ProvinceId":"","CityId":"","DistrictsId":"","lng":"","lat":"","OrderDate":"","OrderStatus":"","PayStatus":"","ShopId":"","apointStatus":"","buyStartTime":"","buyEndTime":"","reviewInfo":"","remark":""},{"phone":"13664446457","pass":"a123456","address":"","name":"","ProvinceId":"","CityId":"","DistrictsId":"","lng":"","lat":"","OrderDate":"","OrderStatus":"","PayStatus":"","ShopId":"","apointStatus":"","buyStartTime":"","buyEndTime":"","reviewInfo":"","remark":""},{"phone":"18285280870","pass":"a123456","address":"","name":"","ProvinceId":"","CityId":"","DistrictsId":"","lng":"","lat":"","OrderDate":"","OrderStatus":"","PayStatus":"","ShopId":"","apointStatus":"","buyStartTime":"","buyEndTime":"","reviewInfo":"","remark":"tunneling socket could not be established, cause=socket hang up"},{"phone":"15521655884","pass":"a123456","address":"","name":"","ProvinceId":"","CityId":"","DistrictsId":"","lng":"","lat":"","OrderDate":"","OrderStatus":"","PayStatus":"","ShopId":"","apointStatus":"","buyStartTime":"","buyEndTime":"","reviewInfo":"","remark":"socket hang up"},{"phone":"18014141579","pass":"a123456","address":"","name":"","ProvinceId":"","CityId":"","DistrictsId":"","lng":"","lat":"","OrderDate":"","OrderStatus":"","PayStatus":"","ShopId":"","apointStatus":"","buyStartTime":"","buyEndTime":"","reviewInfo":"","remark":""},{"phone":"18732316686","pass":"a123456","address":"","name":"","ProvinceId":"","CityId":"","DistrictsId":"","lng":"","lat":"","OrderDate":"","OrderStatus":"","PayStatus":"","ShopId":"","apointStatus":"","buyStartTime":"","buyEndTime":"","reviewInfo":"","remark":""},{"phone":"17547404498","pass":"a123456","address":"","name":"","ProvinceId":"","CityId":"","DistrictsId":"","lng":"","lat":"","OrderDate":"","OrderStatus":"","PayStatus":"","ShopId":"","apointStatus":"","buyStartTime":"","buyEndTime":"","reviewInfo":"","remark":""},{"phone":"17530279117","pass":"a123456","address":"","name":"","ProvinceId":"","CityId":"","DistrictsId":"","lng":"","lat":"","OrderDate":"","OrderStatus":"","PayStatus":"","ShopId":"","apointStatus":"","buyStartTime":"","buyEndTime":"","reviewInfo":"","remark":""},{"phone":"13614764139","pass":"a123456","address":"","name":"","ProvinceId":"","CityId":"","DistrictsId":"","lng":"","lat":"","OrderDate":"","OrderStatus":"","PayStatus":"","ShopId":"","apointStatus":"","buyStartTime":"","buyEndTime":"","reviewInfo":"","remark":""},{"phone":"18253746241","pass":"a123456","address":"","name":"","ProvinceId":"","CityId":"","DistrictsId":"","lng":"","lat":"","OrderDate":"","OrderStatus":"","PayStatus":"","ShopId":"","apointStatus":"","buyStartTime":"","buyEndTime":"","reviewInfo":"","remark":""},{"phone":"18731867215","pass":"a123456","address":"","name":"","ProvinceId":"","CityId":"","DistrictsId":"","lng":"","lat":"","OrderDate":"","OrderStatus":"","PayStatus":"","ShopId":"","apointStatus":"","buyStartTime":"","buyEndTime":"","reviewInfo":"","remark":""},{"phone":"13463003759","pass":"a123456","address":"","name":"","ProvinceId":"","CityId":"","DistrictsId":"","lng":"","lat":"","OrderDate":"","OrderStatus":"","PayStatus":"","ShopId":"","apointStatus":"","buyStartTime":"","buyEndTime":"","reviewInfo":"","remark":""},{"phone":"18617871057","pass":"a123456","address":"","name":"","ProvinceId":"","CityId":"","DistrictsId":"","lng":"","lat":"","OrderDate":"","OrderStatus":"","PayStatus":"","ShopId":"","apointStatus":"","buyStartTime":"","buyEndTime":"","reviewInfo":"","remark":""},{"phone":"15027651759","pass":"a123456","address":"","name":"","ProvinceId":"","CityId":"","DistrictsId":"","lng":"","lat":"","OrderDate":"","OrderStatus":"","PayStatus":"","ShopId":"","apointStatus":"","buyStartTime":"","buyEndTime":"","reviewInfo":"","remark":""},{"phone":"18534502751","pass":"a123456","address":"","name":"","ProvinceId":"","CityId":"","DistrictsId":"","lng":"","lat":"","OrderDate":"","OrderStatus":"","PayStatus":"","ShopId":"","apointStatus":"","buyStartTime":"","buyEndTime":"","reviewInfo":"","remark":""},{"phone":"18249670105","pass":"a123456","address":"","name":"","ProvinceId":"","CityId":"","DistrictsId":"","lng":"","lat":"","OrderDate":"","OrderStatus":"","PayStatus":"","ShopId":"","apointStatus":"","buyStartTime":"","buyEndTime":"","reviewInfo":"","remark":""},{"phone":"15290111971","pass":"a123456","address":"","name":"","ProvinceId":"","CityId":"","DistrictsId":"","lng":"","lat":"","OrderDate":"","OrderStatus":"","PayStatus":"","ShopId":"","apointStatus":"","buyStartTime":"","buyEndTime":"","reviewInfo":"","remark":""},{"phone":"18320488532","pass":"a123456","address":"","name":"","ProvinceId":"","CityId":"","DistrictsId":"","lng":"","lat":"","OrderDate":"","OrderStatus":"","PayStatus":"","ShopId":"","apointStatus":"","buyStartTime":"","buyEndTime":"","reviewInfo":"","remark":""},{"phone":"13464686175","pass":"a123456","address":"建中路461弄1-4号","name":"周曼亚","ProvinceId":"310000","CityId":"310100","DistrictsId":"310115","lng":"121.617388","lat":"31.204704","OrderDate":"","OrderStatus":"","PayStatus":"","ShopId":"","apointStatus":"3","buyStartTime":"2018-03-31 10:00:00","buyEndTime":"2018-03-31 16:00:00","reviewInfo":"","remark":""},{"phone":"15238555689","pass":"a123456","address":"上海市浦东新区益江路394号","name":"邬连中","ProvinceId":"310000","CityId":"310100","DistrictsId":"310115","lng":"121.633378","lat":"31.204567","OrderDate":"","OrderStatus":"","PayStatus":"","ShopId":"","apointStatus":"6","buyStartTime":"2018-03-31 10:00:00","buyEndTime":"2018-03-31 16:00:00","reviewInfo":"预约审核收货地址高度相似异常。适用于《茅台云商服务协议说明》第五条：【交易】中的若干规定，主要涉及：5.1.13利用软件、技术手段或其他方式，为套取优惠、折扣、赠品、运费或其他利益而注册一个或多个茅台云商账号、一人使用同一或多个茅台云商账号，或合意他人使用同一或多个茅台云商账号进行下单等行为；5.3.4如对订单取消、账号被冻结、封禁、不发货等情形有疑问，可与茅台云商客服进行联系。上述购物限制，除特殊说明外并非仅针对单一账号，如您在一段时间内通过多个账号下单，单笔订单数量并未超过该商品购物数量限制，但通过收件地址、下单IP地址、联系电话等判断实际购买人为一人或与您有紧密关联，且多笔订单合计购买数量超过该商品购物数量限制的，茅台云商有权取消或锁定相关订单。若遇不同ID但具备下列选项之一：批量相同（包括雷同、临近、虚构）的收货地址、联系号码、收件人（巧合同名除外）、付款信息等均视为同一客户，茅台云商有权取消或锁定相关订单。","remark":""},{"phone":"17853697903","pass":"a123456","address":"孙环路601弄1～223号","name":"邬连洪","ProvinceId":"310000","CityId":"310100","DistrictsId":"310115","lng":"121.64938","lat":"31.183321","OrderDate":"","OrderStatus":"","PayStatus":"","ShopId":"","apointStatus":"3","buyStartTime":"2018-03-31 10:00:00","buyEndTime":"2018-03-31 16:00:00","reviewInfo":"","remark":""},{"phone":"15399293613","pass":"a123456","address":"","name":"","ProvinceId":"","CityId":"","DistrictsId":"","lng":"","lat":"","OrderDate":"","OrderStatus":"","PayStatus":"","ShopId":"","apointStatus":"","buyStartTime":"","buyEndTime":"","reviewInfo":"","remark":""},{"phone":"13720689056","pass":"a123456","address":"上海市浦东新区益江路550号","name":"余梦云","ProvinceId":"310000","CityId":"310100","DistrictsId":"310115","lng":"121.634487","lat":"31.201379","OrderDate":"","OrderStatus":"","PayStatus":"","ShopId":"","apointStatus":"6","buyStartTime":"2018-03-31 10:00:00","buyEndTime":"2018-03-31 16:00:00","reviewInfo":"预约审核收货地址高度相似异常。适用于《茅台云商服务协议说明》第五条：【交易】中的若干规定，主要涉及：5.1.13利用软件、技术手段或其他方式，为套取优惠、折扣、赠品、运费或其他利益而注册一个或多个茅台云商账号、一人使用同一或多个茅台云商账号，或合意他人使用同一或多个茅台云商账号进行下单等行为；5.3.4如对订单取消、账号被冻结、封禁、不发货等情形有疑问，可与茅台云商客服进行联系。上述购物限制，除特殊说明外并非仅针对单一账号，如您在一段时间内通过多个账号下单，单笔订单数量并未超过该商品购物数量限制，但通过收件地址、下单IP地址、联系电话等判断实际购买人为一人或与您有紧密关联，且多笔订单合计购买数量超过该商品购物数量限制的，茅台云商有权取消或锁定相关订单。若遇不同ID但具备下列选项之一：批量相同（包括雷同、临近、虚构）的收货地址、联系号码、收件人（巧合同名除外）、付款信息等均视为同一客户，茅台云商有权取消或锁定相关订单。","remark":""},{"phone":"13049274576","pass":"a123456","address":"","name":"","ProvinceId":"","CityId":"","DistrictsId":"","lng":"","lat":"","OrderDate":"","OrderStatus":"","PayStatus":"","ShopId":"","apointStatus":"","buyStartTime":"","buyEndTime":"","reviewInfo":"","remark":""},{"phone":"17854403676","pass":"a123456","address":"","name":"","ProvinceId":"","CityId":"","DistrictsId":"","lng":"","lat":"","OrderDate":"","OrderStatus":"","PayStatus":"","ShopId":"","apointStatus":"","buyStartTime":"","buyEndTime":"","reviewInfo":"","remark":""},{"phone":"18864854877","pass":"a123456","address":"上海市浦东新区创新西路1016号","name":"刘健","ProvinceId":"310000","CityId":"310100","DistrictsId":"310115","lng":"121.642772","lat":"31.201801","OrderDate":"","OrderStatus":"","PayStatus":"","ShopId":"","apointStatus":"6","buyStartTime":"2018-03-31 10:00:00","buyEndTime":"2018-03-31 16:00:00","reviewInfo":"预约审核收货地址高度相似异常。适用于《茅台云商服务协议说明》第五条：【交易】中的若干规定，主要涉及：5.1.13利用软件、技术手段或其他方式，为套取优惠、折扣、赠品、运费或其他利益而注册一个或多个茅台云商账号、一人使用同一或多个茅台云商账号，或合意他人使用同一或多个茅台云商账号进行下单等行为；5.3.4如对订单取消、账号被冻结、封禁、不发货等情形有疑问，可与茅台云商客服进行联系。上述购物限制，除特殊说明外并非仅针对单一账号，如您在一段时间内通过多个账号下单，单笔订单数量并未超过该商品购物数量限制，但通过收件地址、下单IP地址、联系电话等判断实际购买人为一人或与您有紧密关联，且多笔订单合计购买数量超过该商品购物数量限制的，茅台云商有权取消或锁定相关订单。若遇不同ID但具备下列选项之一：批量相同（包括雷同、临近、虚构）的收货地址、联系号码、收件人（巧合同名除外）、付款信息等均视为同一客户，茅台云商有权取消或锁定相关订单。","remark":""},{"phone":"13463414918","pass":"a123456","address":"上海市浦东新区亮秀路180号","name":"徐作香","ProvinceId":"310000","CityId":"310100","DistrictsId":"310115","lng":"121.612601","lat":"31.205321","OrderDate":"","OrderStatus":"","PayStatus":"","ShopId":"","apointStatus":"6","buyStartTime":"2018-03-31 10:00:00","buyEndTime":"2018-03-31 16:00:00","reviewInfo":"预约审核收货地址高度相似异常。适用于《茅台云商服务协议说明》第五条：【交易】中的若干规定，主要涉及：5.1.13利用软件、技术手段或其他方式，为套取优惠、折扣、赠品、运费或其他利益而注册一个或多个茅台云商账号、一人使用同一或多个茅台云商账号，或合意他人使用同一或多个茅台云商账号进行下单等行为；5.3.4如对订单取消、账号被冻结、封禁、不发货等情形有疑问，可与茅台云商客服进行联系。上述购物限制，除特殊说明外并非仅针对单一账号，如您在一段时间内通过多个账号下单，单笔订单数量并未超过该商品购物数量限制，但通过收件地址、下单IP地址、联系电话等判断实际购买人为一人或与您有紧密关联，且多笔订单合计购买数量超过该商品购物数量限制的，茅台云商有权取消或锁定相关订单。若遇不同ID但具备下列选项之一：批量相同（包括雷同、临近、虚构）的收货地址、联系号码、收件人（巧合同名除外）、付款信息等均视为同一客户，茅台云商有权取消或锁定相关订单。","remark":""},{"phone":"18764735850","pass":"a123456","address":"上海市浦东新区殷军路","name":"文波","ProvinceId":"310000","CityId":"310100","DistrictsId":"310115","lng":"121.62537","lat":"31.179672","OrderDate":"","OrderStatus":"","PayStatus":"","ShopId":"","apointStatus":"6","buyStartTime":"2018-03-31 10:00:00","buyEndTime":"2018-03-31 16:00:00","reviewInfo":"预约审核收货地址高度相似异常。适用于《茅台云商服务协议说明》第五条：【交易】中的若干规定，主要涉及：5.1.13利用软件、技术手段或其他方式，为套取优惠、折扣、赠品、运费或其他利益而注册一个或多个茅台云商账号、一人使用同一或多个茅台云商账号，或合意他人使用同一或多个茅台云商账号进行下单等行为；5.3.4如对订单取消、账号被冻结、封禁、不发货等情形有疑问，可与茅台云商客服进行联系。上述购物限制，除特殊说明外并非仅针对单一账号，如您在一段时间内通过多个账号下单，单笔订单数量并未超过该商品购物数量限制，但通过收件地址、下单IP地址、联系电话等判断实际购买人为一人或与您有紧密关联，且多笔订单合计购买数量超过该商品购物数量限制的，茅台云商有权取消或锁定相关订单。若遇不同ID但具备下列选项之一：批量相同（包括雷同、临近、虚构）的收货地址、联系号码、收件人（巧合同名除外）、付款信息等均视为同一客户，茅台云商有权取消或锁定相关订单。","remark":""},{"phone":"15835086989","pass":"a123456","address":"益江路516弄1号等","name":"邬连珍","ProvinceId":"310000","CityId":"310100","DistrictsId":"310115","lng":"121.633904","lat":"31.202073","OrderDate":"","OrderStatus":"","PayStatus":"","ShopId":"","apointStatus":"3","buyStartTime":"2018-03-31 10:00:00","buyEndTime":"2018-03-31 16:00:00","reviewInfo":"","remark":""},{"phone":"15247493282","pass":"a123456","address":"殷北路63号附近","name":"龙翔","ProvinceId":"310000","CityId":"310100","DistrictsId":"310115","lng":"121.634444","lat":"31.184162","OrderDate":"","OrderStatus":"","PayStatus":"","ShopId":"","apointStatus":"6","buyStartTime":"2018-03-31 10:00:00","buyEndTime":"2018-03-31 16:00:00","reviewInfo":"预约审核收货地址高度相似异常。适用于《茅台云商服务协议说明》第五条：【交易】中的若干规定，主要涉及：5.1.13利用软件、技术手段或其他方式，为套取优惠、折扣、赠品、运费或其他利益而注册一个或多个茅台云商账号、一人使用同一或多个茅台云商账号，或合意他人使用同一或多个茅台云商账号进行下单等行为；5.3.4如对订单取消、账号被冻结、封禁、不发货等情形有疑问，可与茅台云商客服进行联系。上述购物限制，除特殊说明外并非仅针对单一账号，如您在一段时间内通过多个账号下单，单笔订单数量并未超过该商品购物数量限制，但通过收件地址、下单IP地址、联系电话等判断实际购买人为一人或与您有紧密关联，且多笔订单合计购买数量超过该商品购物数量限制的，茅台云商有权取消或锁定相关订单。若遇不同ID但具备下列选项之一：批量相同（包括雷同、临近、虚构）的收货地址、联系号码、收件人（巧合同名除外）、付款信息等均视为同一客户，茅台云商有权取消或锁定相关订单。","remark":""},{"phone":"17393232815","pass":"a123456","address":"古铜南路117弄1-53号","name":"葛徳智","ProvinceId":"310000","CityId":"310100","DistrictsId":"310115","lng":"121.622327","lat":"31.20666","OrderDate":"","OrderStatus":"","PayStatus":"","ShopId":"","apointStatus":"3","buyStartTime":"2018-03-31 10:00:00","buyEndTime":"2018-03-31 16:00:00","reviewInfo":"","remark":""},{"phone":"15665166293","pass":"a123456","address":"上海市浦东新区益江路299号","name":"赵利","ProvinceId":"310000","CityId":"310100","DistrictsId":"310115","lng":"121.637967","lat":"31.203094","OrderDate":"","OrderStatus":"","PayStatus":"","ShopId":"","apointStatus":"6","buyStartTime":"2018-03-31 10:00:00","buyEndTime":"2018-03-31 16:00:00","reviewInfo":"预约审核收货地址高度相似异常。适用于《茅台云商服务协议说明》第五条：【交易】中的若干规定，主要涉及：5.1.13利用软件、技术手段或其他方式，为套取优惠、折扣、赠品、运费或其他利益而注册一个或多个茅台云商账号、一人使用同一或多个茅台云商账号，或合意他人使用同一或多个茅台云商账号进行下单等行为；5.3.4如对订单取消、账号被冻结、封禁、不发货等情形有疑问，可与茅台云商客服进行联系。上述购物限制，除特殊说明外并非仅针对单一账号，如您在一段时间内通过多个账号下单，单笔订单数量并未超过该商品购物数量限制，但通过收件地址、下单IP地址、联系电话等判断实际购买人为一人或与您有紧密关联，且多笔订单合计购买数量超过该商品购物数量限制的，茅台云商有权取消或锁定相关订单。若遇不同ID但具备下列选项之一：批量相同（包括雷同、临近、虚构）的收货地址、联系号码、收件人（巧合同名除外）、付款信息等均视为同一客户，茅台云商有权取消或锁定相关订单。","remark":""},{"phone":"15830750275","pass":"a123456","address":"张东路2281号","name":"刘发壮","ProvinceId":"310000","CityId":"310100","DistrictsId":"310115","lng":"121.644892","lat":"31.205339","OrderDate":"","OrderStatus":"","PayStatus":"","ShopId":"","apointStatus":"3","buyStartTime":"2018-03-31 10:00:00","buyEndTime":"2018-03-31 16:00:00","reviewInfo":"","remark":""},{"phone":"17879529656","pass":"a123456","address":"上海市浦东新区古桐南路117号","name":"刘发举","ProvinceId":"310000","CityId":"310100","DistrictsId":"310115","lng":"121.622889","lat":"31.206754","OrderDate":"","OrderStatus":"","PayStatus":"","ShopId":"","apointStatus":"6","buyStartTime":"2018-03-31 10:00:00","buyEndTime":"2018-03-31 16:00:00","reviewInfo":"预约审核收货地址高度相似异常。适用于《茅台云商服务协议说明》第五条：【交易】中的若干规定，主要涉及：5.1.13利用软件、技术手段或其他方式，为套取优惠、折扣、赠品、运费或其他利益而注册一个或多个茅台云商账号、一人使用同一或多个茅台云商账号，或合意他人使用同一或多个茅台云商账号进行下单等行为；5.3.4如对订单取消、账号被冻结、封禁、不发货等情形有疑问，可与茅台云商客服进行联系。上述购物限制，除特殊说明外并非仅针对单一账号，如您在一段时间内通过多个账号下单，单笔订单数量并未超过该商品购物数量限制，但通过收件地址、下单IP地址、联系电话等判断实际购买人为一人或与您有紧密关联，且多笔订单合计购买数量超过该商品购物数量限制的，茅台云商有权取消或锁定相关订单。若遇不同ID但具备下列选项之一：批量相同（包括雷同、临近、虚构）的收货地址、联系号码、收件人（巧合同名除外）、付款信息等均视为同一客户，茅台云商有权取消或锁定相关订单。","remark":""},{"phone":"13290556826","pass":"a123456","address":"","name":"","ProvinceId":"","CityId":"","DistrictsId":"","lng":"","lat":"","OrderDate":"","OrderStatus":"","PayStatus":"","ShopId":"","apointStatus":"","buyStartTime":"","buyEndTime":"","reviewInfo":"","remark":""},{"phone":"18743635726","pass":"a123456","address":"长城中环墅27号","name":"钟祥英","ProvinceId":"310000","CityId":"310100","DistrictsId":"310115","lng":"121.634294","lat":"31.189913","OrderDate":"","OrderStatus":"","PayStatus":"","ShopId":"","apointStatus":"6","buyStartTime":"2018-03-31 10:00:00","buyEndTime":"2018-03-31 16:00:00","reviewInfo":"预约审核收货地址高度相似异常。适用于《茅台云商服务协议说明》第五条：【交易】中的若干规定，主要涉及：5.1.13利用软件、技术手段或其他方式，为套取优惠、折扣、赠品、运费或其他利益而注册一个或多个茅台云商账号、一人使用同一或多个茅台云商账号，或合意他人使用同一或多个茅台云商账号进行下单等行为；5.3.4如对订单取消、账号被冻结、封禁、不发货等情形有疑问，可与茅台云商客服进行联系。上述购物限制，除特殊说明外并非仅针对单一账号，如您在一段时间内通过多个账号下单，单笔订单数量并未超过该商品购物数量限制，但通过收件地址、下单IP地址、联系电话等判断实际购买人为一人或与您有紧密关联，且多笔订单合计购买数量超过该商品购物数量限制的，茅台云商有权取消或锁定相关订单。若遇不同ID但具备下列选项之一：批量相同（包括雷同、临近、虚构）的收货地址、联系号码、收件人（巧合同名除外）、付款信息等均视为同一客户，茅台云商有权取消或锁定相关订单。","remark":""},{"phone":"17662411867","pass":"a123456","address":"","name":"","ProvinceId":"","CityId":"","DistrictsId":"","lng":"","lat":"","OrderDate":"","OrderStatus":"","PayStatus":"","ShopId":"","apointStatus":"","buyStartTime":"","buyEndTime":"","reviewInfo":"","remark":""},{"phone":"13513642792","pass":"a123456","address":"紫薇路35弄1-33号","name":"刘应阳","ProvinceId":"310000","CityId":"310100","DistrictsId":"310115","lng":"121.619623","lat":"31.206579","OrderDate":"","OrderStatus":"","PayStatus":"","ShopId":"","apointStatus":"3","buyStartTime":"2018-03-31 10:00:00","buyEndTime":"2018-03-31 16:00:00","reviewInfo":"","remark":""},{"phone":"13799832090","pass":"a123456","address":"","name":"","ProvinceId":"","CityId":"","DistrictsId":"","lng":"","lat":"","OrderDate":"","OrderStatus":"","PayStatus":"","ShopId":"","apointStatus":"","buyStartTime":"","buyEndTime":"","reviewInfo":"","remark":"登录失败:13799832090:a123456:手机号未注册"},{"phone":"18698817813","pass":"a123456","address":"上海市浦东新区高斯路986弄1~22号","name":"刘毅","ProvinceId":"310000","CityId":"310100","DistrictsId":"310115","lng":"121.617074","lat":"31.206937","OrderDate":"","OrderStatus":"","PayStatus":"","ShopId":"","apointStatus":"6","buyStartTime":"2018-03-31 10:00:00","buyEndTime":"2018-03-31 16:00:00","reviewInfo":"预约审核收货地址高度相似异常。适用于《茅台云商服务协议说明》第五条：【交易】中的若干规定，主要涉及：5.1.13利用软件、技术手段或其他方式，为套取优惠、折扣、赠品、运费或其他利益而注册一个或多个茅台云商账号、一人使用同一或多个茅台云商账号，或合意他人使用同一或多个茅台云商账号进行下单等行为；5.3.4如对订单取消、账号被冻结、封禁、不发货等情形有疑问，可与茅台云商客服进行联系。上述购物限制，除特殊说明外并非仅针对单一账号，如您在一段时间内通过多个账号下单，单笔订单数量并未超过该商品购物数量限制，但通过收件地址、下单IP地址、联系电话等判断实际购买人为一人或与您有紧密关联，且多笔订单合计购买数量超过该商品购物数量限制的，茅台云商有权取消或锁定相关订单。若遇不同ID但具备下列选项之一：批量相同（包括雷同、临近、虚构）的收货地址、联系号码、收件人（巧合同名除外）、付款信息等均视为同一客户，茅台云商有权取消或锁定相关订单。","remark":""},{"phone":"13500156546","pass":"a123456","address":"","name":"","ProvinceId":"","CityId":"","DistrictsId":"","lng":"","lat":"","OrderDate":"","OrderStatus":"","PayStatus":"","ShopId":"","apointStatus":"","buyStartTime":"","buyEndTime":"","reviewInfo":"","remark":""},{"phone":"18695442661","pass":"a123456","address":"","name":"","ProvinceId":"","CityId":"","DistrictsId":"","lng":"","lat":"","OrderDate":"","OrderStatus":"","PayStatus":"","ShopId":"","apointStatus":"","buyStartTime":"","buyEndTime":"","reviewInfo":"","remark":""},{"phone":"15354360811","pass":"a123456","address":"","name":"","ProvinceId":"","CityId":"","DistrictsId":"","lng":"","lat":"","OrderDate":"","OrderStatus":"","PayStatus":"","ShopId":"","apointStatus":"","buyStartTime":"","buyEndTime":"","reviewInfo":"","remark":"socket hang up"},{"phone":"13223504407","pass":"a123456","address":"","name":"","ProvinceId":"","CityId":"","DistrictsId":"","lng":"","lat":"","OrderDate":"","OrderStatus":"","PayStatus":"","ShopId":"","apointStatus":"","buyStartTime":"","buyEndTime":"","reviewInfo":"","remark":"登录失败:13223504407:a123456:密码错误"},{"phone":"17685571908","pass":"a123456","address":"","name":"","ProvinceId":"","CityId":"","DistrictsId":"","lng":"","lat":"","OrderDate":"","OrderStatus":"","PayStatus":"","ShopId":"","apointStatus":"","buyStartTime":"","buyEndTime":"","reviewInfo":"","remark":"登录失败:17685571908:a123456:手机号未注册"},{"phone":"13081312422","pass":"a123456","address":"上海市浦东新区川杨新苑3期北门","name":"龙小五","ProvinceId":"310000","CityId":"310100","DistrictsId":"310115","lng":"121.640391","lat":"31.195375","OrderDate":"","OrderStatus":"","PayStatus":"","ShopId":"","apointStatus":"6","buyStartTime":"2018-03-31 10:00:00","buyEndTime":"2018-03-31 16:00:00","reviewInfo":"预约审核收货地址高度相似异常。适用于《茅台云商服务协议说明》第五条：【交易】中的若干规定，主要涉及：5.1.13利用软件、技术手段或其他方式，为套取优惠、折扣、赠品、运费或其他利益而注册一个或多个茅台云商账号、一人使用同一或多个茅台云商账号，或合意他人使用同一或多个茅台云商账号进行下单等行为；5.3.4如对订单取消、账号被冻结、封禁、不发货等情形有疑问，可与茅台云商客服进行联系。上述购物限制，除特殊说明外并非仅针对单一账号，如您在一段时间内通过多个账号下单，单笔订单数量并未超过该商品购物数量限制，但通过收件地址、下单IP地址、联系电话等判断实际购买人为一人或与您有紧密关联，且多笔订单合计购买数量超过该商品购物数量限制的，茅台云商有权取消或锁定相关订单。若遇不同ID但具备下列选项之一：批量相同（包括雷同、临近、虚构）的收货地址、联系号码、收件人（巧合同名除外）、付款信息等均视为同一客户，茅台云商有权取消或锁定相关订单。","remark":""},{"phone":"15677049879","pass":"a123456","address":"","name":"","ProvinceId":"","CityId":"","DistrictsId":"","lng":"","lat":"","OrderDate":"","OrderStatus":"","PayStatus":"","ShopId":"","apointStatus":"","buyStartTime":"","buyEndTime":"","reviewInfo":"","remark":""},{"phone":"15837437823","pass":"a123456","address":"","name":"","ProvinceId":"","CityId":"","DistrictsId":"","lng":"","lat":"","OrderDate":"","OrderStatus":"","PayStatus":"","ShopId":"","apointStatus":"","buyStartTime":"","buyEndTime":"","reviewInfo":"","remark":"登录失败:15837437823:a123456:密码错误"},{"phone":"13230672756","pass":"a123456","address":"张东路2281弄25幢95号","name":"覃芳","ProvinceId":"310000","CityId":"310100","DistrictsId":"310115","lng":"121.642919","lat":"31.206951","OrderDate":"","OrderStatus":"","PayStatus":"","ShopId":"","apointStatus":"3","buyStartTime":"2018-03-31 10:00:00","buyEndTime":"2018-03-31 16:00:00","reviewInfo":"","remark":""},{"phone":"18533703270","pass":"a123456","address":"中科路2500弄30幢97-100号","name":"高洁","ProvinceId":"310000","CityId":"310100","DistrictsId":"310115","lng":"121.642367","lat":"31.194284","OrderDate":"","OrderStatus":"","PayStatus":"","ShopId":"","apointStatus":"3","buyStartTime":"2018-03-31 10:00:00","buyEndTime":"2018-03-31 16:00:00","reviewInfo":"","remark":""},{"phone":"18183062125","pass":"a123456","address":"中科路2635弄8-9号","name":"张发昌","ProvinceId":"310000","CityId":"310100","DistrictsId":"310115","lng":"121.644202","lat":"31.196929","OrderDate":"","OrderStatus":"","PayStatus":"","ShopId":"","apointStatus":"3","buyStartTime":"2018-03-31 10:00:00","buyEndTime":"2018-03-31 16:00:00","reviewInfo":"","remark":""},{"phone":"18438063310","pass":"a123456","address":"益丰路55弄16幢52-55号","name":"熬绍芳","ProvinceId":"310000","CityId":"310100","DistrictsId":"310115","lng":"121.628988","lat":"31.207096","OrderDate":"","OrderStatus":"","PayStatus":"","ShopId":"","apointStatus":"3","buyStartTime":"2018-03-31 10:00:00","buyEndTime":"2018-03-31 16:00:00","reviewInfo":"","remark":""},{"phone":"15082907866","pass":"a123456","address":"高斯路1122弄11幢27-29号","name":"罗静","ProvinceId":"310000","CityId":"310100","DistrictsId":"310115","lng":"121.622002","lat":"31.204765","OrderDate":"","OrderStatus":"","PayStatus":"","ShopId":"","apointStatus":"3","buyStartTime":"2018-03-31 10:00:00","buyEndTime":"2018-03-31 16:00:00","reviewInfo":"","remark":""},{"phone":"17631880252","pass":"a123456","address":"高斯路1296弄4幢11-12号","name":"张竹青","ProvinceId":"310000","CityId":"310100","DistrictsId":"310115","lng":"121.62518","lat":"31.206012","OrderDate":"2018-03-28 10:31:34","OrderStatus":4,"PayStatus":"","ShopId":"152520100037","apointStatus":"4","buyStartTime":"2018-03-31 10:00:00","buyEndTime":"2018-03-31 16:00:00","reviewInfo":"","remark":"账号还在锁定期内，暂时不能购买"}]