[{"phone":"17324325505","pass":"123456","address":"名仁家园,A2栋1单元198号房","name":"张国军","ProvinceId":"330000","CityId":"330100","DistrictsId":"330109","lng":"120.25229","lat":"30.17812","OrderDate":"2018-04-02 14:51:05","OrderStatus":5,"PayStatus":1,"ShopId":"233330186001","apointStatus":"4","buyStartTime":"2018-04-03 10:00:00","buyEndTime":"2018-04-03 16:00:00","reviewInfo":"","remark":"账号还在锁定期内，暂时不能购买"},{"phone":"17328606450","pass":"123456","address":"怡佳公寓,2栋1单元1203号","name":"宋清暑","ProvinceId":"330000","CityId":"330100","DistrictsId":"330109","lng":"120.261319","lat":"30.17299","OrderDate":"2018-04-02 14:51:05","OrderStatus":5,"PayStatus":1,"ShopId":"233330186001","apointStatus":"4","buyStartTime":"2018-04-03 10:00:00","buyEndTime":"2018-04-03 16:00:00","reviewInfo":"","remark":"账号还在锁定期内，暂时不能购买"},{"phone":"18024127634","pass":"123456","address":"万宝城肯德基,对面保安厅","name":"庄潇","ProvinceId":"330000","CityId":"330100","DistrictsId":"330110","lng":"120.291382","lat":"30.429007","OrderDate":"2018-04-02 14:51:05","OrderStatus":5,"PayStatus":1,"ShopId":"233330186001","apointStatus":"4","buyStartTime":"2018-04-03 10:00:00","buyEndTime":"2018-04-03 16:00:00","reviewInfo":"","remark":"账号还在锁定期内，暂时不能购买"},{"phone":"17727114231","pass":"123456","address":"坤和和家园别墅,1365","name":"李发军","ProvinceId":"330000","CityId":"330100","DistrictsId":"330106","lng":"120.058426","lat":"30.241719","OrderDate":"2018-04-02 14:51:06","OrderStatus":5,"PayStatus":1,"ShopId":"233330186001","apointStatus":"4","buyStartTime":"2018-04-03 10:00:00","buyEndTime":"2018-04-03 16:00:00","reviewInfo":"","remark":"账号还在锁定期内，暂时不能购买"},{"phone":"15302997813","pass":"123456","address":"瓜山东苑181号楼,1086","name":"陈记","ProvinceId":"330000","CityId":"330100","DistrictsId":"330105","lng":"120.149605","lat":"30.338684","OrderDate":"2018-04-02 14:51:06","OrderStatus":5,"PayStatus":1,"ShopId":"233330186001","apointStatus":"4","buyStartTime":"2018-04-03 10:00:00","buyEndTime":"2018-04-03 16:00:00","reviewInfo":"","remark":"账号还在锁定期内，暂时不能购买"},{"phone":"18038694099","pass":"123456","address":"","name":"","ProvinceId":"","CityId":"","DistrictsId":"","lng":"","lat":"","OrderDate":"","OrderStatus":"","PayStatus":"","ShopId":"","apointStatus":"","buyStartTime":"","buyEndTime":"","reviewInfo":"","remark":"socket hang up"},{"phone":"17324344544","pass":"123456","address":"国美电器(江城店),楼上223","name":"伍婷婷","ProvinceId":"330000","CityId":"330100","DistrictsId":"330102","lng":"120.175912","lat":"30.234581","OrderDate":"2018-04-02 14:51:07","OrderStatus":5,"PayStatus":1,"ShopId":"233330186001","apointStatus":"4","buyStartTime":"2018-04-03 10:00:00","buyEndTime":"2018-04-03 16:00:00","reviewInfo":"","remark":"账号还在锁定期内，暂时不能购买"},{"phone":"15302997784","pass":"123456","address":"华星时代广场,1025","name":"陈虎","ProvinceId":"330000","CityId":"330100","DistrictsId":"330106","lng":"120.125125","lat":"30.277134","OrderDate":"2018-04-02 14:51:08","OrderStatus":5,"PayStatus":1,"ShopId":"233330186001","apointStatus":"4","buyStartTime":"2018-04-03 10:00:00","buyEndTime":"2018-04-03 16:00:00","reviewInfo":"","remark":"账号还在锁定期内，暂时不能购买"},{"phone":"15302996281","pass":"123456","address":"森禾广场,1025","name":"陈为","ProvinceId":"330000","CityId":"330100","DistrictsId":"330104","lng":"120.206637","lat":"30.253068","OrderDate":"2018-04-02 14:51:09","OrderStatus":5,"PayStatus":1,"ShopId":"233330186001","apointStatus":"4","buyStartTime":"2018-04-03 10:00:00","buyEndTime":"2018-04-03 16:00:00","reviewInfo":"","remark":"账号还在锁定期内，暂时不能购买"},{"phone":"17322248121","pass":"123456","address":"杭州新木教育中心,楼桑221","name":"郑家明","ProvinceId":"330000","CityId":"330100","DistrictsId":"330104","lng":"120.210139","lat":"30.255634","OrderDate":"2018-04-02 14:51:10","OrderStatus":5,"PayStatus":1,"ShopId":"233330186001","apointStatus":"4","buyStartTime":"2018-04-03 10:00:00","buyEndTime":"2018-04-03 16:00:00","reviewInfo":"","remark":"账号还在锁定期内，暂时不能购买"},{"phone":"15302997532","pass":"123456","address":"常青公寓5号楼,1048","name":"资旺","ProvinceId":"330000","CityId":"330100","DistrictsId":"330104","lng":"120.205223","lat":"30.245144","OrderDate":"2018-04-02 14:51:11","OrderStatus":5,"PayStatus":1,"ShopId":"233330186001","apointStatus":"4","buyStartTime":"2018-04-03 10:00:00","buyEndTime":"2018-04-03 16:00:00","reviewInfo":"","remark":"账号还在锁定期内，暂时不能购买"},{"phone":"15302984575","pass":"123456","address":"之江饭店,对面小卖部","name":"伍喜爱","ProvinceId":"330000","CityId":"330100","DistrictsId":"330105","lng":"120.147989","lat":"30.285687","OrderDate":"2018-04-02 14:51:11","OrderStatus":5,"PayStatus":1,"ShopId":"233330186001","apointStatus":"4","buyStartTime":"2018-04-03 10:00:00","buyEndTime":"2018-04-03 16:00:00","reviewInfo":"","remark":"账号还在锁定期内，暂时不能购买"},{"phone":"17324345325","pass":"123456","address":"云栖蝶谷,1055","name":"陈影响","ProvinceId":"330000","CityId":"330100","DistrictsId":"330106","lng":"120.102407","lat":"30.177343","OrderDate":"2018-04-02 14:51:12","OrderStatus":5,"PayStatus":1,"ShopId":"233330186001","apointStatus":"4","buyStartTime":"2018-04-03 10:00:00","buyEndTime":"2018-04-03 16:00:00","reviewInfo":"","remark":"账号还在锁定期内，暂时不能购买"},{"phone":"17324343773","pass":"111222","address":"百合公寓(池塘庙路),506","name":"范婷婷","ProvinceId":"330000","CityId":"330100","DistrictsId":"330104","lng":"120.194387","lat":"30.296327","OrderDate":"2018-04-02 14:51:12","OrderStatus":5,"PayStatus":1,"ShopId":"233330186001","apointStatus":"4","buyStartTime":"2018-04-03 10:00:00","buyEndTime":"2018-04-03 16:00:00","reviewInfo":"","remark":"账号还在锁定期内，暂时不能购买"},{"phone":"17306654917","pass":"123456","address":"沙县小吃(南岸晶都店),楼上1223","name":"黄扎","ProvinceId":"330000","CityId":"330100","DistrictsId":"330108","lng":"120.195612","lat":"30.178484","OrderDate":"2018-04-02 14:51:13","OrderStatus":5,"PayStatus":1,"ShopId":"233330186001","apointStatus":"4","buyStartTime":"2018-04-03 10:00:00","buyEndTime":"2018-04-03 16:00:00","reviewInfo":"","remark":"账号还在锁定期内，暂时不能购买"},{"phone":"17324004742","pass":"123456","address":"丰瑞南苑2幢,1523","name":"莫飞非","ProvinceId":"330000","CityId":"330100","DistrictsId":"330109","lng":"120.253125","lat":"30.213413","OrderDate":"2018-04-02 14:51:14","OrderStatus":5,"PayStatus":1,"ShopId":"233330186001","apointStatus":"4","buyStartTime":"2018-04-03 10:00:00","buyEndTime":"2018-04-03 16:00:00","reviewInfo":"","remark":"账号还在锁定期内，暂时不能购买"},{"phone":"17324328959","pass":"123456","address":"城西银泰城,A1栋1-201号","name":"王忠诚","ProvinceId":"330000","CityId":"330100","DistrictsId":"330105","lng":"120.107572","lat":"30.299534","OrderDate":"2018-04-02 14:51:15","OrderStatus":5,"PayStatus":1,"ShopId":"233330186001","apointStatus":"4","buyStartTime":"2018-04-03 10:00:00","buyEndTime":"2018-04-03 16:00:00","reviewInfo":"","remark":"账号还在锁定期内，暂时不能购买"},{"phone":"17324297950","pass":"123456","address":"天园阁,1635","name":"陈高清","ProvinceId":"330000","CityId":"330100","DistrictsId":"330103","lng":"120.186574","lat":"30.268795","OrderDate":"2018-04-02 14:51:16","OrderStatus":5,"PayStatus":1,"ShopId":"233330186001","apointStatus":"4","buyStartTime":"2018-04-03 10:00:00","buyEndTime":"2018-04-03 16:00:00","reviewInfo":"","remark":"账号还在锁定期内，暂时不能购买"},{"phone":"13262949328","pass":"456789","address":"清河坊社区(南1门),14幢502","name":"刘丽","ProvinceId":"330000","CityId":"330100","DistrictsId":"330102","lng":"120.168517","lat":"30.240744","OrderDate":"2018-04-02 14:51:17","OrderStatus":5,"PayStatus":1,"ShopId":"233330186001","apointStatus":"4","buyStartTime":"2018-04-03 10:00:00","buyEndTime":"2018-04-03 16:00:00","reviewInfo":"","remark":"账号还在锁定期内，暂时不能购买"},{"phone":"13711456713","pass":"qwe12345678","address":"后市街小区(上城区城市管理行政执法大队五中队东),浙江省杭州市上城区大连东路158号银泰小区5好喽7但愿","name":"戴伟","ProvinceId":"330000","CityId":"330100","DistrictsId":"330102","lng":"120.169394","lat":"30.244048","OrderDate":"2018-04-02 14:51:18","OrderStatus":5,"PayStatus":1,"ShopId":"233330186001","apointStatus":"4","buyStartTime":"2018-04-03 10:00:00","buyEndTime":"2018-04-03 16:00:00","reviewInfo":"","remark":"账号还在锁定期内，暂时不能购买"},{"phone":"17324297953","pass":"123456","address":"杭州天海宾馆-会议厅,保安室","name":"朱文案","ProvinceId":"330000","CityId":"330100","DistrictsId":"330104","lng":"120.20177","lat":"30.28747","OrderDate":"2018-04-02 14:51:19","OrderStatus":5,"PayStatus":1,"ShopId":"233330186001","apointStatus":"4","buyStartTime":"2018-04-03 10:00:00","buyEndTime":"2018-04-03 16:00:00","reviewInfo":"","remark":"账号还在锁定期内，暂时不能购买"},{"phone":"18127854003","pass":"123456","address":"杭州市安全技术防范行业协会,对面小卖部","name":"陈霞","ProvinceId":"330000","CityId":"330100","DistrictsId":"330104","lng":"120.190718","lat":"30.261035","OrderDate":"2018-04-02 14:51:19","OrderStatus":5,"PayStatus":1,"ShopId":"233330186001","apointStatus":"4","buyStartTime":"2018-04-03 10:00:00","buyEndTime":"2018-04-03 16:00:00","reviewInfo":"","remark":"账号还在锁定期内，暂时不能购买"},{"phone":"18127856294","pass":"123456","address":"名家膳房,楼上332","name":"张逍遥","ProvinceId":"330000","CityId":"330100","DistrictsId":"330108","lng":"120.214919","lat":"30.212361","OrderDate":"2018-04-02 14:51:20","OrderStatus":5,"PayStatus":1,"ShopId":"233330186001","apointStatus":"4","buyStartTime":"2018-04-03 10:00:00","buyEndTime":"2018-04-03 16:00:00","reviewInfo":"","remark":"账号还在锁定期内，暂时不能购买"},{"phone":"17324329235","pass":"123456","address":"蟹觅(来福士店),楼上522","name":"朱晓明","ProvinceId":"330000","CityId":"330100","DistrictsId":"330104","lng":"120.213051","lat":"30.248772","OrderDate":"2018-04-02 14:51:21","OrderStatus":5,"PayStatus":1,"ShopId":"233330186001","apointStatus":"4","buyStartTime":"2018-04-03 10:00:00","buyEndTime":"2018-04-03 16:00:00","reviewInfo":"","remark":"账号还在锁定期内，暂时不能购买"}]